     3.03           OBSERVATION DATA    M: Mixed            RINEX VERSION / TYPE
GNSS-SDRLIB v1.1                        20260216 073412 UTC PGM / RUN BY / DATE 
                                                            MARKER NAME         
                                                            MARKER NUMBER       
                                                            MARKER TYPE         
                                                            OBSERVER / AGENCY   
GNSS-SDRLIB         GNSS-SDRLIB         1.1                 REC # / TYPE / VERS 
                                                            ANT # / TYPE        
        0.0000        0.0000        0.0000                  APPROX POSITION XYZ 
        0.0000        0.0000        0.0000                  ANTENNA: DELTA H/E/N
G    4 C1C L1C D1C S1C                                      SYS / # / OBS TYPES 
R    4 C1C L1C D1C S1C                                      SYS / # / OBS TYPES 
E    4 C1C L1C D1C S1C                                      SYS / # / OBS TYPES 
J    4 C1C L1C D1C S1C                                      SYS / # / OBS TYPES 
S    4 C1C L1C D1C S1C                                      SYS / # / OBS TYPES 
C    4 C1C L1C D1C S1C                                      SYS / # / OBS TYPES 
I    4 C1C L1C D1C S1C                                      SYS / # / OBS TYPES 
  2026    02    16    07    34   12.7879460     GPS         TIME OF FIRST OBS   
  2026    02    16    07    34   12.7879460     GPS         TIME OF LAST OBS    
G L1C                                                       SYS / PHASE SHIFT   
R L1C                                                       SYS / PHASE SHIFT   
E L1C  0.00000                                              SYS / PHASE SHIFT   
J L1C                                                       SYS / PHASE SHIFT   
S L1C                                                       SYS / PHASE SHIFT   
C L1C  0.00000                                              SYS / PHASE SHIFT   
I L1C  0.00000                                              SYS / PHASE SHIFT   
  0                                                         GLONASS SLOT / FRQ #
 C1C    0.000 C1P    0.000 C2C    0.000 C2P    0.000        GLONASS COD/PHS/BIS 
                                                            END OF HEADER       
> 2026 02 15 23 35 36.0688020  0  1                     
G07  20620623.359       41763.664        1284.922           0.255  
> 2026 02 15 23 35 36.0688020  0  3                     
G04  21000433.020      110845.030        3252.290           0.255  
G05  20619289.304       52267.976        1559.554           0.255  
G07  22051810.303       41757.527        1284.397           0.255  
> 2026 02 15 23 35 36.0688020  0  4                     
G03  24026232.500      156158.788        4524.824           0.255  
G04  21000433.020      110845.030        3252.290           0.255  
G05  20619289.304       52267.976        1559.554           0.255  
G07  22051810.303       41757.527        1284.397           0.255  
> 2026 02 15 23 35 36.0688020  0  6                     
G02  23514919.443       46982.197        1340.739           0.255  
G03  24026232.500      156158.788        4524.824           0.255  
G04  21000433.020      110845.030        3252.290           0.255  
G05  20619289.304       52267.976        1559.554           0.255  
G07  22051810.303       41757.527        1284.397           0.255  
G09  24179288.186       15355.596         485.935           0.255  
> 2026 02 15 23 35 36.1688020  0  7                     
G02  23514885.003       47115.683        1329.869           0.255  
G03  24026116.277      156610.134        4512.329           0.255  
G04  21000355.425      111169.668        3243.660           0.255  
G05  20619248.272       52423.381        1551.331           0.255  
G06  24025106.895      163187.212        4916.574           0.255  
G07  22051773.279       41885.716        1278.914           0.255  
G09  24179276.527       15403.969         478.885           0.255  
> 2026 02 15 23 35 36.2688020  0  7                     
G02  23514849.182       47248.789        1335.318           0.255  
G03  24026003.318      157060.999        4513.273           0.255  
G04  21000275.525      111493.887        3247.063           0.255  
G05  20619205.925       52578.393        1554.340           0.255  
G06  24024977.549      163678.449        4915.750           0.255  
G07  22051738.768       42013.444        1281.480           0.255  
G09  24179262.354       15451.922         483.270           0.255  
> 2026 02 15 23 35 36.3688020  0  7                     
G02  23514812.886       47382.960        1339.769           0.255  
G03  24025886.260      157512.996        4520.660           0.255  
G04  21000194.694      111819.191        3252.154           0.255  
G05  20619166.637       52734.490        1560.845           0.255  
G06  24024855.611      164170.792        4922.439           0.255  
G07  22051708.598       42142.286        1287.445           0.255  
G09  24179253.417       15501.000         495.397           0.255  
> 2026 02 15 23 35 36.4688020  0  7                     
G02  23514778.679       47517.124        1345.701           0.255  
G03  24025768.906      157964.995        4520.927           0.255  
G04  21000109.801      112144.496        3255.396           0.255  
G05  20619128.341       52890.584        1562.997           0.255  
G06  24024731.682      164663.141        4924.655           0.255  
G07  22051677.872       42271.097        1289.135           0.255  
G09  24179242.795       15550.026         500.095           0.255  
> 2026 02 15 23 35 36.5688020  0  7                     
G02  23514747.549       47651.459        1341.958           0.255  
G03  24025653.659      158417.181        4518.625           0.255  
G04  21000025.047      112469.983        3253.184           0.255  
G05  20619087.914       53046.860        1561.003           0.255  
G06  24024603.078      165155.667        4923.561           0.255  
G07  22051642.970       42400.125        1289.019           0.255  
G09  24179226.744       15599.183         490.850           0.255  
> 2026 02 15 23 35 36.6688020  0  7                     
G02  23514718.575       47784.816        1326.724           0.255  
G03  24025540.293      158868.364        4506.419           0.255  
G04  20999940.826      112794.469        3239.358           0.255  
G05  20619049.458       53202.133        1547.228           0.255  
G06  24024476.287      165647.191        4909.180           0.255  
G07  22051605.081       42528.142        1272.346           0.255  
G09  24179212.751       15647.408         474.074           0.255  
> 2026 02 15 23 35 36.7688020  0  7                     
G02  23514684.981       47917.477        1326.118           0.255  
G03  24025426.950      159318.848        4504.777           0.255  
G04  20999856.982      113118.259        3238.001           0.255  
G05  20619010.646       53356.716        1547.219           0.255  
G06  24024352.526      166138.031        4909.210           0.255  
G07  22051572.911       42655.447        1307.082           0.255  
G09  24179200.199       15694.939         475.814           0.255  
> 2026 02 15 23 35 36.8688020  0  7                     
G02  23514647.752       48049.984        1323.426           0.255  
G03  24025313.601      159769.212        4500.596           0.255  
G04  20999776.539      113441.912        3234.743           0.255  
G05  20618969.881       53511.156        1543.607           0.255  
G06  24024228.758      166628.743        4906.838           0.255  
G07  22051541.940       42782.647        1270.018           0.255  
G09  24179186.650       15742.312         473.724           0.255  
> 2026 02 15 23 35 36.9688020  0  7                     
G02  23514611.033       48182.957        1334.307           0.255  
G03  24025198.334      160220.037        4513.698           0.255  
G04  20999693.896      113766.017        3245.949           0.255  
G05  20618929.189       53666.063        1553.890           0.255  
G06  24024101.837      167119.908        4917.022           0.255  
G07  22051506.510       42910.303        1281.343           0.255  
G09  24179171.445       15790.160         483.787           0.255  
> 2026 02 15 23 35 37.0688020  0  7                     
G02  23514576.674       48316.304        1330.542           0.255  
G03  24025084.206      160671.229        4509.566           0.255  
G04  20999610.749      114090.501        3239.961           0.255  
G05  20618886.950       53821.329        1548.439           0.255  
G06  24023975.602      167611.448        4912.497           0.255  
G07  22051476.256       43038.333        1276.117           0.255  
G09  24179158.748       15838.355         476.076           0.255  
> 2026 02 15 23 35 37.1688020  0  7                     
G02  23514543.794       48449.504        1335.906           0.255  
G03  24024967.602      161122.256        4513.181           0.255  
G04  20999527.612      114414.823        3243.995           0.255  
G05  20618848.684       53976.446        1552.555           0.255  
G06  24023852.909      168102.836        4916.404           0.255  
G07  22051445.199       43166.207        1279.715           0.255  
G09  24179145.630       15886.407         479.671           0.255  
> 2026 02 15 23 35 37.2688020  0  7                     
G02  23514513.008       48581.239        1293.427           0.255  
G03  24024848.917      161572.049        4498.935           0.255  
G04  20999443.723      114737.897        3227.551           0.255  
G05  20618812.544       54130.321        1535.282           0.255  
G06  24023726.742      168592.972        4899.273           0.255  
G07  22051409.446       43292.813        1262.332           0.255  
G09  24179139.739       15933.224         463.999           0.255  
> 2026 02 15 23 35 37.3688020  0  7                     
G02  23514478.390       48713.767        1328.618           0.255  
G03  24024734.948      162022.256        4507.919           0.255  
G04  20999359.688      115061.388        3242.142           0.255  
G05  20618774.224       54284.601        1550.194           0.255  
G06  24023600.898      169083.526        4912.430           0.255  
G07  22051376.672       43419.838        1275.402           0.255  
G09  24179129.206       15980.431         477.646           0.255  
> 2026 02 15 23 35 37.4688020  0  7                     
G02  23514443.799       48846.954        1330.630           0.255  
G03  24024618.616      162473.300        4510.212           0.255  
G04  20999277.267      115385.711        3244.794           0.255  
G05  20618734.786       54439.712        1552.026           0.255  
G06  24023475.406      169574.903        4914.902           0.255  
G07  22051342.553       43547.716        1279.749           0.255  
G09  24179113.673       16028.489         482.075           0.255  
> 2026 02 15 23 35 37.5688020  0  7                     
G02  23514407.597       48980.042        1329.996           0.255  
G03  24024502.660      162924.199        4506.319           0.255  
G04  20999197.646      115709.925        3241.498           0.255  
G05  20618693.555       54594.725        1549.281           0.255  
G06  24023351.621      170066.198        4911.076           0.255  
G07  22051309.710       43675.484        1276.380           0.255  
G09  24179102.445       16076.430         477.934           0.255  
> 2026 02 15 23 35 37.6688020  0  7                     
G02  23514372.522       49112.956        1332.853           0.255  
G03  24024388.289      163374.956        4507.721           0.255  
G04  20999115.489      116033.972        3243.789           0.255  
G05  20618652.424       54749.562        1551.171           0.255  
G06  24023222.678      170557.313        4914.787           0.255  
G07  22051277.819       43803.067        1277.535           0.255  
G09  24179091.451       16124.223         481.702           0.255  
> 2026 02 15 23 35 37.7688020  0  7                     
G02  23514337.907       49246.385        1337.553           0.255  
G03  24024271.616      163826.279        4513.598           0.255  
G04  20999029.904      116358.541        3249.136           0.255  
G05  20618612.875       54904.937        1556.011           0.255  
G06  24023097.803      171048.966        4917.539           0.255  
G07  22051248.841       43931.211        1283.079           0.255  
G09  24179075.541       16172.503         480.674           0.255  
> 2026 02 15 23 35 37.8688020  0  7                     
G02  23514309.724       49380.068        1338.738           0.255  
G03  24024161.522      164277.829        4513.426           0.255  
G04  20998947.511      116683.366        3251.132           0.255  
G05  20618572.781       55060.556        1556.304           0.255  
G06  24022974.757      171540.888        4920.506           0.255  
G07  22051213.334       44059.610        1286.151           0.255  
G09  24179061.657       16221.083         486.449           0.255  
> 2026 02 15 23 35 37.9688020  0  7                     
G02  23514277.641       49513.607        1332.624           0.255  
G03  24024044.109      164729.223        4512.048           0.255  
G04  20998864.400      117007.652        3194.783           0.255  
G05  20618534.922       55216.013        1551.292           0.255  
G06  24022846.848      172032.648        4916.219           0.255  
G07  22051175.662       44187.819        1350.972           0.255  
G09  24179049.259       16269.435         478.426           0.255  
> 2026 02 15 23 35 38.0688020  0  7                     
G02  23514238.040       49646.796        1384.232           0.255  
G03  24023928.304      165180.365        4510.327           0.255  
G04  20998782.814      117332.396        3241.851           0.255  
G05  20618495.665       55371.207        1548.623           0.255  
G06  24022718.140      172524.144        4913.875           0.255  
G07  22051143.659       44315.402        1254.665           0.255  
G09  24179039.760       16317.592         480.530           0.255  
> 2026 02 15 23 35 38.1688020  0  7                     
G02  23514203.502       49779.899        1330.578           0.255  
G03  24023811.384      165631.277        4512.156           0.255  
G04  20998696.653      117656.576        3240.824           0.255  
G05  20618455.609       55526.197        1547.250           0.255  
G06  24022596.142      173015.441        4913.609           0.255  
G07  22051112.354       44443.575        1279.249           0.255  
G09  24179024.987       16365.524         478.752           0.255  
> 2026 02 15 23 35 38.2688020  0  7                     
G02  23514169.880       49912.704        1325.517           0.255  
G03  24023700.878      166081.954        4505.484           0.255  
G04  20998617.101      117980.542        3238.066           0.255  
G05  20618414.492       55680.981        1546.191           0.255  
G06  24022470.793      173506.489        4909.467           0.255  
G07  22051078.948       44571.098        1276.502           0.255  
G09  24179009.448       16413.208         478.679           0.255  
> 2026 02 15 23 35 38.3688020  0  7                     
G02  23514135.506       50045.499        1327.089           0.255  
G03  24023579.716      166532.592        4506.124           0.255  
G04  20998535.534      118304.476        3241.975           0.255  
G05  20618375.537       55835.701        1549.361           0.255  
G06  24022344.315      173997.530        4913.009           0.255  
G07  22051046.619       44698.563        1276.571           0.255  
G09  24178999.732       16460.853         479.239           0.255  
> 2026 02 15 23 35 38.4688020  0  7                     
G02  23514102.246       50178.005        1327.084           0.255  
G03  24023458.484      166982.976        4498.440           0.255  
G04  20998456.079      118628.114        3237.537           0.255  
G05  20618336.238       55990.140        1545.823           0.255  
G06  24022220.774      174488.278        4909.542           0.255  
G07  22051013.124       44825.596        1255.792           0.255  
G09  24178990.963       16508.249         477.009           0.255  
> 2026 02 15 23 35 38.5688020  0  7                     
G02  23514069.786       50311.173        1334.860           0.255  
G03  24023346.689      167434.064        4511.558           0.255  
G04  20998369.243      118952.422        3246.261           0.255  
G05  20618296.537       56145.245        1552.995           0.255  
G06  24022096.627      174979.681        4917.351           0.255  
G07  22050979.364       44953.644        1279.336           0.255  
G09  24178983.124       16556.266         483.713           0.255  
> 2026 02 15 23 35 38.6688020  0  7                     
G02  23514033.175       50444.151        1331.213           0.255  
G03  24023244.235      167884.949        4511.884           0.255  
G04  20998284.249      119276.543        3242.807           0.255  
G05  20618258.199       56300.168        1550.113           0.255  
G06  24021968.643      175470.933        4915.843           0.255  
G07  22050951.033       45081.371        1279.955           0.255  
G09  24178968.303       16604.147         480.794           0.255  
> 2026 02 15 23 35 38.7688020  0  7                     
G02  23513996.877       50577.560        1336.506           0.255  
G03  24023125.423      168336.207        4512.597           0.255  
G04  20998200.054      119601.072        3245.371           0.255  
G05  20618218.147       56455.522        1554.676           0.255  
G06  24021838.617      175962.578        4917.493           0.255  
G07  22050919.292       45209.482        1282.291           0.255  
G09  24178949.867       16652.396         485.867           0.255  
> 2026 02 15 23 35 38.8688020  0  7                     
G02  23513963.326       50711.033        1333.822           0.255  
G03  24023008.857      168787.600        4514.745           0.255  
G04  20998116.823      119925.605        3264.585           0.255  
G05  20618176.884       56610.965        1555.918           0.255  
G06  24021718.856      176454.328        4921.031           0.255  
G07  22050885.447       45337.416        1278.841           0.255  
G09  24178938.421       16700.788         488.409           0.255  
> 2026 02 15 23 35 38.9688020  0  7                     
G02  23513929.019       50844.707        1336.158           0.255  
G03  24022896.330      169239.169        4514.053           0.255  
G04  20998036.782      120250.499        3247.325           0.255  
G05  20618134.170       56766.571        1556.619           0.255  
G06  24021592.411      176946.250        4918.095           0.255  
G07  22050853.126       45466.091        1284.184           0.255  
G09  24178924.510       16749.286         484.736           0.255  
> 2026 02 15 23 35 39.0688020  0  7                     
G02  23513894.552       50978.019        1331.483           0.255  
G03  24022783.542      169690.367        4507.835           0.255  
G04  20997957.088      120574.963        3242.658           0.255  
G05  20618093.090       56921.841        1551.838           0.255  
G06  24021465.191      177437.840        4914.135           0.255  
G07  22050822.370       45594.150        1278.883           0.255  
G09  24178909.051       16797.476         477.763           0.255  
> 2026 02 15 23 35 39.1688020  0  7                     
G02  23513860.886       51110.921        1331.334           0.255  
G03  24022663.286      170141.174        4511.052           0.255  
G04  20997876.616      120898.995        3243.825           0.255  
G05  20618053.930       57076.686        1552.245           0.255  
G06  24021342.813      177929.004        4913.139           0.255  
G07  22050787.619       45721.770        1279.855           0.255  
G09  24178896.982       16845.249         479.312           0.255  
> 2026 02 15 23 35 39.2688020  0  7                     
G02  23513828.078       51243.721        1324.813           0.255  
G03  24022543.750      170591.921        4505.660           0.255  
G04  20997790.398      121222.950        3238.928           0.255  
G05  20618017.702       57231.439        1546.732           0.255  
G06  24021218.661      178420.095        4909.596           0.255  
G07  22050754.712       45849.295        1274.512           0.255  
G09  24178884.162       16892.919         475.876           0.255  
> 2026 02 15 23 35 39.3688020  0  7                     
G02  23513794.070       51376.647        1328.909           0.255  
G03  24022429.852      171042.750        4508.930           0.255  
G04  20997702.624      121547.000        3237.111           0.255  
G05  20617980.199       57386.301        1544.355           0.255  
G06  24021087.999      178911.291        4908.302           0.255  
G07  22050719.936       45976.927        1269.592           0.255  
G09  24178875.300       16940.701         472.588           0.255  
> 2026 02 15 23 35 39.4688020  0  7                     
G02  23513757.107       51508.916        1317.594           0.255  
G03  24022316.718      171492.913        4493.452           0.255  
G04  20997619.384      121870.424        3228.755           0.255  
G05  20617941.011       57540.538        1537.021           0.255  
G06  24020964.560      179401.860        4901.386           0.255  
G07  22050687.844       46103.946        1263.042           0.255  
G09  24178864.623       16987.859         467.028           0.255  
> 2026 02 15 23 35 39.5688020  0  7                     
G02  23513723.565       51640.543        1315.518           0.255  
G03  24022202.826      171942.491        4497.702           0.255  
G04  20997539.105      122193.161        3240.702           0.255  
G05  20617898.531       57694.112        1536.345           0.255  
G06  24020843.697      179891.763        4898.922           0.255  
G07  22050656.787       46229.814        1228.733           0.255  
G09  24178854.278       17034.347         463.783           0.255  
> 2026 02 15 23 35 39.6688020  0  7                     
G02  23513691.683       51772.958        1325.079           0.255  
G03  24022086.363      172392.794        4506.596           0.255  
G04  20997458.096      122516.743        3235.649           0.255  
G05  20617857.666       57848.479        1543.773           0.255  
G06  24020718.047      180382.469        4907.789           0.255  
G07  22050624.748       46357.508        1274.787           0.255  
G09  24178840.769       17081.662         475.575           0.255  
> 2026 02 15 23 35 39.7688020  0  7                     
G02  23513654.789       51905.656        1326.116           0.255  
G03  24021976.961      172843.395        4504.171           0.255  
G04  20997374.359      122840.563        3235.396           0.255  
G05  20617816.596       58003.118        1544.329           0.255  
G06  24020591.049      180873.455        4908.028           0.255  
G07  22050592.845       46484.917        1272.829           0.255  
G09  24178834.858       17129.216         475.962           0.255  
> 2026 02 15 23 35 39.8688020  0  7                     
G02  23513621.969       52038.826        1332.960           0.255  
G03  24021856.661      173294.501        4510.757           0.255  
G04  20997293.376      123164.900        3245.140           0.255  
G05  20617776.101       58158.255        1552.974           0.255  
G06  24020468.545      181364.901        4916.653           0.255  
G07  22050558.436       46612.829        1280.206           0.255  
G09  24178819.877       17177.272         483.660           0.255  
> 2026 02 15 23 35 39.9688020  0  7                     
G02  23513586.247       52172.386        1333.384           0.255  
G03  24021738.025      173745.970        4515.281           0.255  
G04  20997209.378      123489.575        3246.521           0.255  
G05  20617739.357       58313.783        1555.682           0.255  
G06  24020341.294      181856.755        4918.939           0.255  
G07  22050529.982       46741.131        1280.430           0.255  
G09  24178801.097       17225.717         486.344           0.255  
> 2026 02 15 23 35 40.0688020  0  7                     
G02  23513552.329       52305.523        1450.359           0.255  
G03  24021623.174      174197.242        4510.392           0.255  
G04  20997123.560      123814.075        3244.127           0.255  
G05  20617700.270       58469.098        1553.236           0.255  
G06  24020212.800      182348.430        4916.970           0.255  
G07  22050496.652       46869.284        1280.742           0.255  
G09  24178789.950       17273.928         482.123           0.255  
> 2026 02 15 23 35 40.1688020  0  7                     
G02  23513521.234       52439.038        1331.878           0.255  
G03  24021511.182      174648.436        4509.741           0.255  
G04  20997041.283      124138.503        3241.401           0.255  
G05  20617660.162       58624.346        1549.809           0.255  
G06  24020088.519      182840.025        4912.712           0.255  
G07  22050460.729       46997.335        1279.704           0.255  
G09  24178777.362       17322.109         479.141           0.255  
> 2026 02 15 23 35 40.2688020  0  7                     
G02  23513486.949       52572.292        1332.506           0.255  
G03  24021394.177      175099.630        4510.067           0.255  
G04  20996959.719      124462.906        3242.345           0.255  
G05  20617619.898       58779.540        1551.104           0.255  
G06  24019965.253      183331.577        4913.875           0.255  
G07  22050427.851       47125.304        1277.860           0.255  
G09  24178764.266       17370.234         480.647           0.255  
> 2026 02 15 23 35 40.3688020  0  7                     
G02  23513449.945       52705.334        1330.195           0.255  
G03  24021276.970      175550.633        4507.878           0.255  
G04  20996880.592      124787.101        3241.407           0.255  
G05  20617581.203       58934.553        1549.625           0.255  
G06  24019836.675      183822.942        4913.559           0.255  
G07  22050397.871       47253.113        1276.004           0.255  
G09  24178753.094       17418.121         477.436           0.255  
> 2026 02 15 23 35 40.4688020  0  7                     
G02  23513413.661       52838.375        1329.767           0.255  
G03  24021170.262      176001.613        4507.958           0.255  
G04  20996796.864      125111.292        3241.046           0.255  
G05  20617540.582       59089.579        1549.626           0.255  
G06  24019713.164      184314.323        4913.530           0.255  
G07  22050363.939       47380.783        1195.394           0.255  
G09  24178738.131       17466.079         478.544           0.255  
> 2026 02 15 23 35 40.5688020  0  7                     
G02  23513379.965       52971.463        1332.652           0.255  
G03  24021061.352      176452.661        4510.121           0.255  
G04  20996712.695      125435.525        3242.159           0.255  
G05  20617498.990       59244.620        1549.583           0.255  
G06  24019589.600      184805.727        4913.641           0.255  
G07  22050331.165       47508.782        1275.798           0.255  
G09  24178725.988       17514.033         479.111           0.255  
> 2026 02 15 23 35 40.6688020  0  7                     
G02  23513347.791       53103.997        1322.155           0.255  
G03  24020939.676      176903.135        4502.904           0.255  
G04  20996626.019      125759.207        3235.564           0.255  
G05  20617459.574       59399.123        1542.838           0.255  
G06  24019461.575      185296.584        4906.482           0.255  
G07  22050298.385       47636.106        1270.946           0.255  
G09  24178717.309       17561.443         471.244           0.255  
> 2026 02 15 23 35 40.7688020  0  7                     
G02  23513316.730       53236.571        1326.047           0.255  
G03  24020818.616      177353.654        4505.859           0.255  
G04  20996545.273      126082.928        3236.375           0.255  
G05  20617422.764       59553.656        1544.282           0.255  
G06  24019332.862      185787.477        4909.380           0.255  
G07  22050262.658       47763.436        1272.495           0.255  
G09  24178704.272       17608.890         472.310           0.255  
> 2026 02 15 23 35 40.8688020  0  7                     
G02  23513284.489       53369.204        1328.731           0.255  
G03  24020701.960      177804.235        4507.751           0.255  
G04  20996461.767      126406.703        3239.196           0.255  
G05  20617383.094       59708.252        1547.909           0.255  
G06  24019208.185      186278.445        4912.064           0.255  
G07  22050230.075       47890.825        1274.371           0.255  
G09  24178693.874       17656.386         474.202           0.255  
> 2026 02 15 23 35 40.9688020  0  7                     
G02  23513253.387       53501.999        1331.192           0.255  
G03  24020589.821      178254.997        4506.283           0.255  
G04  20996380.927      126730.638        3240.232           0.255  
G05  20617340.339       59863.020        1548.309           0.255  
G06  24019083.616      186769.576        4911.369           0.255  
G07  22050201.097       48018.423        1276.464           0.255  
G09  24178683.698       17704.080         479.374           0.255  
> 2026 02 15 23 35 41.0688020  0  7                     
G02  23513211.292       53634.904        1329.018           0.255  
G03  24020475.830      178705.862        4508.674           0.255  
G04  20996299.941      127054.696        3238.621           0.255  
G05  20617299.581       60017.887        1545.994           0.255  
G06  24018957.785      187260.819        4909.629           0.255  
G07  22050167.550       48146.093        1272.695           0.255  
G09  24178664.950       17751.833         475.323           0.255  
> 2026 02 15 23 35 41.1688020  0  7                     
G02  23513176.112       53767.916        1333.905           0.255  
G03  24020356.637      179156.847        4513.490           0.255  
G04  20996216.360      127378.877        3245.365           0.255  
G05  20617261.737       60172.895        1552.687           0.255  
G06  24018834.252      187752.212        4917.325           0.255  
G07  22050133.072       48273.917        1281.959           0.255  
G09  24178652.815       17799.760         482.030           0.255  
> 2026 02 15 23 35 41.2688020  0  7                     
G02  23513143.578       53900.999        1300.231           0.255  
G03  24020242.405      179607.920        4506.981           0.255  
G04  20996133.445      127703.176        3242.672           0.255  
G05  20617225.076       60328.017        1551.567           0.255  
G06  24018711.979      188243.679        4914.588           0.255  
G07  22050100.230       48401.852        1278.972           0.255  
G09  24178637.821       17847.816         486.495           0.255  
> 2026 02 15 23 35 41.3688020  0  7                     
G02  23513112.205       54034.370        1336.104           0.255  
G03  24020135.847      180059.211        4517.753           0.255  
G04  20996048.109      128027.577        3248.070           0.255  
G05  20617185.917       60483.260        1554.353           0.255  
G06  24018585.109      188735.311        4920.603           0.255  
G07  22050066.401       48529.911        1283.795           0.255  
G09  24178626.673       17895.947         485.280           0.255  
> 2026 02 15 23 35 41.4688020  0  7                     
G02  23513082.885       54167.639        1333.005           0.255  
G03  24020019.594      180510.417        4511.289           0.255  
G04  20995965.050      128351.979        3240.619           0.255  
G05  20617148.618       60638.489        1549.434           0.255  
G06  24018455.272      189226.898        4913.091           0.255  
G07  22050029.996       48657.964        1278.687           0.255  
G09  24178617.675       17944.100         478.641           0.255  
> 2026 02 15 23 35 41.5688020  0  7                     
G02  23513047.301       54300.870        1326.989           0.255  
G03  24019900.392      180961.642        4514.192           0.255  
G04  20995881.087      128676.379        3241.229           0.255  
G05  20617107.802       60793.714        1548.344           0.255  
G06  24018330.234      189718.512        4914.115           0.255  
G07  22050000.608       48785.562        1172.864           0.255  
G09  24178605.259       17992.221         477.044           0.255  
> 2026 02 15 23 35 41.6688020  0  7                     
G02  23513007.325       54434.130        1334.548           0.255  
G03  24019786.441      181412.866        4513.338           0.255  
G04  20995799.851      129000.794        3245.449           0.255  
G05  20617065.527       60948.968        1553.985           0.255  
G06  24018206.092      190210.155        4918.562           0.255  
G07  22049969.146       48914.049        1281.038           0.255  
G09  24178592.492       18040.381         484.929           0.255  
> 2026 02 15 23 35 41.7688020  0  7                     
G02  23512969.648       54567.207        1328.433           0.255  
G03  24019672.192      181863.899        4507.311           0.255  
G04  20995720.410      129325.011        3239.522           0.255  
G05  20617022.224       61104.005        1548.291           0.255  
G06  24018080.461      190701.575        4911.369           0.255  
G07  22049936.613       49041.926        1274.868           0.255  
G09  24178579.219       18088.310         476.978           0.255  
> 2026 02 15 23 35 41.8688020  0  7                     
G02  23512939.893       54699.623        1322.252           0.255  
G03  24019553.579      182314.332        4503.578           0.255  
G04  20995638.263      129648.592        3235.244           0.255  
G05  20616982.713       61258.394        1542.206           0.255  
G06  24017957.147      191192.374        4905.375           0.255  
G07  22049900.668       49169.149        1270.106           0.255  
G09  24178566.570       18135.618         472.432           0.255  
> 2026 02 15 23 35 41.9688020  0  7                     
G02  23512911.501       54832.099        1328.357           0.255  
G03  24019433.243      182764.754        4508.771           0.255  
G04  20995555.581      129972.203        3237.979           0.255  
G05  20616945.634       61412.837        1546.173           0.255  
G06  24017833.779      191683.213        4910.553           0.255  
G07  22049865.426       49296.422        1275.621           0.255  
G09  24178557.990       18182.954         474.270           0.255  
> 2026 02 15 23 35 42.0688020  0  7                     
G02  23512876.775       54964.364        1337.725           0.255  
G03  24019324.258      183215.569        4510.076           0.255  
G04  20995470.509      130296.184        3241.010           0.255  
G05  20616906.285       61567.660        1550.148           0.255  
G06  24017707.439      192174.425        4913.268           0.255  
G07  22049830.946       49424.839        1368.505           0.255  
G09  24178542.362       18230.684         480.860           0.255  
> 2026 02 15 23 35 42.1688020  0  7                     
G02  23512842.943       55097.740        1325.413           0.255  
G03  24019215.429      183666.365        4505.495           0.255  
G04  20995386.278      130620.160        3238.045           0.255  
G05  20616867.979       61722.457        1547.260           0.255  
G06  24017577.238      192665.632        4912.246           0.255  
G07  22049803.654       49551.691        1275.229           0.255  
G09  24178526.263       18278.388         475.904           0.255  
> 2026 02 15 23 35 42.2688020  0  7                     
G02  23512809.127       55230.400        1327.371           0.255  
G03  24019094.436      184117.021        4508.863           0.255  
G04  20995302.749      130943.956        3240.489           0.255  
G05  20616828.979       61877.075        1548.290           0.255  
G06  24017453.440      193156.661        4913.461           0.255  
G07  22049773.618       49679.151        1276.629           0.255  
G09  24178517.672       18325.908         473.945           0.255  
> 2026 02 15 23 35 42.3688020  0  7                     
G02  23512774.233       55362.834        1319.520           0.255  
G03  24018978.598      184567.436        4500.654           0.255  
G04  20995221.139      131267.563        3233.926           0.255  
G05  20616790.104       62031.509        1543.671           0.255  
G06  24017331.422      193647.483        4907.129           0.255  
G07  22049737.566       49806.408        1270.826           0.255  
G09  24178504.550       18373.246         471.269           0.255  
> 2026 02 15 23 35 42.4688020  0  7                     
G02  23512738.191       55495.434        1321.285           0.255  
G03  24018867.258      185018.008        4503.975           0.255  
G04  20995140.548      131591.278        3235.117           0.255  
G05  20616748.811       62186.046        1544.640           0.255  
G06  24017202.810      194138.438        4908.722           0.255  
G07  22049704.209       49933.785        1272.699           0.255  
G09  24178491.460       18420.678         471.980           0.255  
> 2026 02 15 23 35 42.5688020  0  7                     
G02  23512704.952       55627.810        1325.181           0.255  
G03  24018750.866      185468.384        4506.118           0.255  
G04  20995058.822      131914.804        3238.422           0.255  
G05  20616707.918       62340.410        1546.766           0.255  
G06  24017081.472      194629.207        4912.851           0.255  
G07  22049669.510       50060.978        1274.338           0.255  
G09  24178481.783       18467.956         474.321           0.255  
> 2026 02 15 23 35 42.6688020  0  7                     
G02  23512671.716       55760.935        1332.393           0.255  
G03  24018630.815      185919.492        4515.604           0.255  
G04  20994974.879      132239.072        3243.590           0.255  
G05  20616668.407       62495.514        1552.230           0.255  
G06  24016959.008      195120.724        4916.833           0.255  
G07  22049636.795       50188.904        1280.173           0.255  
G09  24178472.268       18515.950         480.352           0.255  
> 2026 02 15 23 35 42.7688020  0  7                     
G02  23512638.211       55893.986        1331.614           0.255  
G03  24018515.471      186370.551        4509.349           0.255  
G04  20994887.887      132563.283        3241.774           0.255  
G05  20616629.791       62650.563        1550.337           0.255  
G06  24016827.166      195612.160        4913.429           0.255  
G07  22049605.262       50316.911        1280.976           0.255  
G09  24178464.194       18563.881         479.917           0.255  
> 2026 02 15 23 35 42.8688020  0  7                     
G02  23512603.215       56027.082        1332.561           0.255  
G03  24018403.364      186821.614        4512.922           0.255  
G04  20994805.243      132887.510        3243.233           0.255  
G05  20616589.976       62805.623        1551.460           0.255  
G06  24016701.214      196103.647        4916.983           0.255  
G07  22049576.107       50444.700        1280.537           0.255  
G09  24178445.377       18611.839         480.025           0.255  
> 2026 02 15 23 35 42.9688020  0  7                     
G02  23512570.053       56160.184        1329.298           0.255  
G03  24018290.887      187272.747        4508.889           0.255  
G04  20994723.148      133211.783        3240.272           0.255  
G05  20616547.632       62960.721        1549.643           0.255  
G06  24016578.160      196595.183        4913.018           0.255  
G07  22049542.105       50572.636        1277.839           0.255  
G09  24178429.582       18659.849         478.256           0.255  
> 2026 02 15 23 35 43.0688020  0  7                     
G02  23512535.188       56292.904        1326.518           0.255  
G03  24018170.931      187723.448        4504.605           0.255  
G04  20994645.530      133535.648        3237.770           0.255  
G05  20616507.080       63115.427        1546.319           0.255  
G06  24016451.706      197086.316        4909.361           0.255  
G07  22049508.459       50700.188        1275.089           0.255  
G09  24178417.256       18707.466         476.345           0.255  
> 2026 02 15 23 35 43.1688020  0  7                     
G02  23512500.275       56425.658        1332.520           0.255  
G03  24018055.090      188174.199        4506.840           0.255  
G04  20994562.552      133859.546        3239.833           0.255  
G05  20616469.097       63270.168        1548.683           0.255  
G06  24016326.943      197577.475        4912.764           0.255  
G07  22049474.040       50827.764        1278.490           0.255  
G09  24178407.687       18755.097         477.728           0.255  
> 2026 02 15 23 35 43.2688020  0  7                     
G02  23512466.767       56558.001        1320.241           0.255  
G03  24017946.647      188624.595        4499.207           0.255  
G04  20994478.204      134183.073        3229.432           0.255  
G05  20616429.870       63424.518        1538.271           0.255  
G06  24016204.297      198068.285        4902.551           0.255  
G07  22049441.790       50954.970        1266.726           0.255  
G09  24178394.884       18802.353         467.012           0.255  
> 2026 02 15 23 35 43.3688020  0  7                     
G02  23512434.389       56689.802        1318.298           0.255  
G03  24017836.590      189074.431        4500.378           0.255  
G04  20994393.293      134506.043        3230.985           0.255  
G05  20616392.088       63578.322        1539.423           0.255  
G06  24016080.098      198558.512        4903.104           0.255  
G07  22049408.503       51081.618        1267.318           0.255  
G09  24178376.034       18849.026         466.512           0.255  
> 2026 02 15 23 35 43.4688020  0  7                     
G02  23512397.675       56822.236        1329.245           0.255  
G03  24017712.959      189524.859        4509.116           0.255  
G04  20994307.700      134829.588        3239.399           0.255  
G05  20616354.953       63732.729        1548.170           0.255  
G06  24015948.263      199049.357        4913.532           0.255  
G07  22049381.431       51208.856        1275.292           0.255  
G09  24178367.186       18896.313         474.233           0.255  
> 2026 02 15 23 35 43.5688020  0  7                     
G02  23512367.062       56954.538        1323.651           0.255  
G03  24017596.097      189975.180        4504.791           0.255  
G04  20994224.324      135153.117        3228.955           0.255  
G05  20616314.245       63887.047        1542.619           0.255  
G06  24015823.073      199540.117        4908.174           0.255  
G07  22049352.616       51336.024        1269.802           0.255  
G09  24178361.249       18943.520         471.377           0.255  
> 2026 02 15 23 35 43.6688020  0  7                     
G02  23512333.077       57086.315        1265.868           0.255  
G03  24017484.007      190425.208        4497.893           0.255  
G04  20994146.007      135476.215        3231.042           0.255  
G05  20616270.862       64041.020        1539.554           0.255  
G06  24015701.496      200030.544        4904.256           0.255  
G07  22049314.849       51462.933        1257.596           0.255  
G09  24178344.603       18990.419         467.543           0.255  
> 2026 02 15 23 35 43.7688020  0  7                     
G02  23512296.465       57219.476        1334.148           0.255  
G03  24017371.053      190876.207        4514.829           0.255  
G04  20994069.404      135800.302        3246.179           0.255  
G05  20616230.583       64195.965        1555.367           0.255  
G06  24015571.961      200521.918        4917.788           0.255  
G07  22049280.194       51590.662        1284.686           0.255  
G09  24178333.885       19038.279         486.336           0.255  
> 2026 02 15 23 35 43.8688020  0  7                     
G02  23512262.899       57352.730        1330.680           0.255  
G03  24017250.423      191327.467        4512.220           0.255  
G04  20993985.489      136124.709        3243.367           0.255  
G05  20616189.424       64351.211        1551.307           0.255  
G06  24015449.579      201013.607        4915.460           0.255  
G07  22049247.839       51718.743        1278.382           0.255  
G09  24178325.339       19086.406         482.048           0.255  
> 2026 02 15 23 35 43.9688020  0  7                     
G02  23512229.963       57485.382        1320.377           0.255  
G03  24017140.267      191778.128        4504.092           0.255  
G04  20993898.446      136448.515        3235.734           0.255  
G05  20616148.955       64505.847        1543.299           0.255  
G06  24015329.501      201504.698        4908.144           0.255  
G07  22049215.527       51846.252        1272.765           0.255  
G09  24178312.645       19133.912         472.080           0.255  
> 2026 02 15 23 35 44.0688020  0  7                     
G02  23512195.072       57617.618        1336.249           0.255  
G03  24017026.221      192228.510        4505.042           0.255  
G04  20993813.693      136772.018        3238.769           0.255  
G05  20616109.006       64660.200        1547.816           0.255  
G06  24015203.086      201995.493        4910.764           0.255  
G07  22049186.443       51973.462        1276.533           0.255  
G09  24178299.699       19181.151         478.956           0.255  
> 2026 02 15 23 35 44.1688020  0  7                     
G02  23512157.308       57751.043        1334.504           0.255  
G03  24016910.627      192679.844        4512.067           0.255  
G04  20993730.604      137096.478        3245.545           0.255  
G05  20616071.892       64815.512        1554.601           0.255  
G06  24015072.760      202487.251        4920.793           0.255  
G07  22049156.768       52101.624        1282.554           0.255  
G09  24178282.775       19229.323         484.337           0.255  
> 2026 02 15 23 35 44.2688020  0  7                     
G02  23512124.533       57884.445        1332.462           0.255  
G03  24016795.444      193131.328        4512.254           0.255  
G04  20993647.890      137421.057        3244.531           0.255  
G05  20616035.840       64970.929        1552.960           0.255  
G06  24014945.506      202979.118        4917.101           0.255  
G07  22049119.585       52229.890        1281.083           0.255  
G09  24178267.440       19277.639         481.636           0.255  
> 2026 02 15 23 35 44.3688020  0  7                     
G02  23512092.262       58017.952        1335.804           0.255  
G03  24016680.440      193582.853        4518.745           0.255  
G04  20993566.862      137745.709        3248.755           0.255  
G05  20615994.953       65126.434        1556.793           0.255  
G06  24014822.917      203471.072        4919.931           0.255  
G07  22049084.357       52358.252        1283.192           0.255  
G09  24178259.817       19326.020         483.948           0.255  
> 2026 02 15 23 35 44.4688020  0  7                     
G02  23512057.838       58151.720        1383.380           0.255  
G03  24016564.421      194034.672        4518.488           0.255  
G04  20993486.904      138070.632        3250.739           0.255  
G05  20615954.545       65282.183        1557.869           0.255  
G06  24014696.883      203963.308        4923.860           0.255  
G07  22049051.943       52486.896        1303.191           0.255  
G09  24178246.053       19374.681         487.062           0.255  
> 2026 02 15 23 35 44.5688020  0  7                     
G02  23512019.281       58285.211        1335.483           0.255  
G03  24016442.784      194486.226        4514.897           0.255  
G04  20993404.465      138395.283        3246.544           0.255  
G05  20615915.022       65437.687        1552.575           0.255  
G06  24014572.959      204455.266        4918.353           0.255  
G07  22049020.535       52615.241        1281.973           0.255  
G09  24178227.867       19423.040         478.691           0.255  
> 2026 02 15 23 35 44.6688020  0  7                     
G02  23511984.328       58418.395        1331.214           0.255  
G03  24016326.312      194937.434        4509.133           0.255  
G04  20993319.420      138719.633        3242.402           0.255  
G05  20615873.185       65592.874        1548.733           0.255  
G06  24014449.957      204946.916        4912.595           0.255  
G07  22048987.917       52743.334        1279.622           0.255  
G09  24178217.561       19471.141         478.983           0.255  
> 2026 02 15 23 35 44.7688020  0  7                     
G02  23511951.344       58551.611        1333.969           0.255  
G03  24016213.157      195388.717        4517.530           0.255  
G04  20993233.210      139044.011        3246.544           0.255  
G05  20615834.351       65748.090        1554.368           0.255  
G06  24014320.423      205438.617        4919.245           0.255  
G07  22048956.992       52871.400        1284.128           0.255  
G09  24178212.594       19519.240         483.321           0.255  
> 2026 02 15 23 35 44.8688020  0  7                     
G02  23511917.444       58684.460        1321.781           0.255  
G03  24016100.588      195839.617        4506.488           0.255  
G04  20993150.171      139368.011        3235.457           0.255  
G05  20615795.637       65902.945        1544.530           0.255  
G06  24014191.638      205929.928        4907.543           0.255  
G07  22048923.508       52999.116        1274.585           0.255  
G09  24178195.320       19566.977         471.621           0.255  
> 2026 02 15 23 35 44.9688020  0  7                     
G02  23511886.012       58816.582        1318.646           0.255  
G03  24015986.590      196289.770        4498.375           0.255  
G04  20993069.561      139691.281        3231.169           0.255  
G05  20615755.511       66057.068        1539.069           0.255  
G06  24014067.938      206420.510        4904.131           0.255  
G07  22048888.912       53126.116        1268.239           0.255  
G09  24178185.751       19614.009         469.660           0.255  
> 2026 02 15 23 35 45.0688020  0  7                     
G02  23511850.613       58948.807        1326.888           0.255  
G03  24015874.058      196740.110        4508.481           0.255  
G04  20992986.904      140014.653        3238.249           0.255  
G05  20615711.987       66211.292        1547.263           0.255  
G06  24013943.357      206911.230        4913.806           0.255  
G07  22048855.452       53253.233        1278.892           0.255  
G09  24178175.459       19661.109         476.949           0.255  
> 2026 02 15 23 35 45.1688020  0  7                     
G02  23511815.861       59081.269        1322.661           0.255  
G03  24015761.647      197190.641        4506.980           0.255  
G04  20992905.102      140338.279        3234.362           0.255  
G05  20615673.370       66365.760        1541.427           0.255  
G06  24013818.260      207402.177        4907.906           0.255  
G07  22048822.573       53380.558        1271.338           0.255  
G09  24178161.819       19708.452         472.197           0.255  
> 2026 02 15 23 35 45.2688020  0  7                     
G02  23511781.522       59214.212        1283.052           0.255  
G03  24015647.411      197640.962        4498.433           0.255  
G04  20992822.226      140661.986        3253.686           0.255  
G05  20615633.678       66520.068        1539.881           0.255  
G06  24013696.090      207892.974        4905.021           0.255  
G07  22048792.210       53507.721        1268.861           0.255  
G09  24178145.460       19755.619         466.874           0.255  
> 2026 02 15 23 35 45.3688020  0  7                     
G02  23511748.921       59345.794        1323.526           0.255  
G03  24015527.264      198091.290        4503.828           0.255  
G04  20992740.104      140985.128        3236.629           0.255  
G05  20615598.043       66674.318        1545.390           0.255  
G06  24013571.247      208383.693        4909.731           0.255  
G07  22048760.216       53634.861        1274.802           0.255  
G09  24178131.525       19802.756         472.856           0.255  
> 2026 02 15 23 35 45.4688020  0  7                     
G02  23511713.336       59478.290        1323.500           0.255  
G03  24015410.875      198541.865        4508.868           0.255  
G04  20992656.033      141308.793        3235.916           0.255  
G05  20615560.824       66828.852        1546.344           0.255  
G06  24013446.167      208874.718        4911.443           0.255  
G07  22048724.962       53762.273        1276.745           0.255  
G09  24178115.722       19850.152         473.992           0.255  
> 2026 02 15 23 35 45.5688020  0  7                     
G02  23511681.837       59610.735        1324.869           0.255  
G03  24015294.709      198992.388        4506.217           0.255  
G04  20992572.003      141632.396        3237.976           0.255  
G05  20615521.699       66983.280        1545.306           0.255  
G06  24013316.219      209365.648        4910.870           0.255  
G07  22048688.228       53889.580        1275.886           0.255  
G09  24178112.131       19897.483         475.199           0.255  
> 2026 02 15 23 35 45.6688020  0  7                     
G02  23511651.064       59743.259        1326.309           0.255  
G03  24015181.650      199443.012        4510.204           0.255  
G04  20992490.391      141956.077        3237.458           0.255  
G05  20615481.018       67137.818        1545.417           0.255  
G06  24013190.523      209856.679        4911.291           0.255  
G07  22048655.418       54017.014        1274.236           0.255  
G09  24178099.644       19944.894         473.799           0.255  
> 2026 02 15 23 35 45.7688020  0  7                     
G02  23511613.981       59876.207        1332.631           0.255  
G03  24015066.458      199894.041        4516.380           0.255  
G04  20992409.365      142280.193        3244.009           0.255  
G05  20615440.046       67292.805        1552.300           0.255  
G06  24013066.748      210348.145        4916.362           0.255  
G07  22048624.556       54144.873        1281.628           0.255  
G09  24178087.450       19992.785         483.226           0.255  
> 2026 02 15 23 35 45.8688020  0  7                     
G02  23511575.457       60009.588        1336.401           0.255  
G03  24014945.901      200345.487        4514.831           0.255  
G04  20992326.792      142604.700        3245.015           0.255  
G05  20615399.681       67448.181        1554.417           0.255  
G06  24012939.425      210840.011        4919.169           0.255  
G07  22048592.830       54273.102        1281.120           0.255  
G09  24178075.124       20040.980         480.271           0.255  
> 2026 02 15 23 35 45.9688020  0  7                     
G02  23511542.071       60142.905        1330.979           0.255  
G03  24014836.882      200796.910        4515.039           0.255  
G04  20992242.867      142929.194        3244.719           0.255  
G05  20615358.332       67603.513        1553.382           0.255  
G06  24012817.469      211331.856        4917.298           0.255  
G07  22048560.206       54401.351        1280.544           0.255  
G09  24178064.855       20089.221         480.669           0.255  
> 2026 02 15 23 35 46.0688020  0  7                     
G02  23511510.221       60276.072        1328.798           0.255  
G03  24014725.323      201248.163        4512.053           0.255  
G04  20992160.332      143253.531        3241.491           0.255  
G05  20615317.544       67758.703        1550.392           0.255  
G06  24012695.013      211823.549        4915.788           0.255  
G07  22048526.448       54529.421        1278.466           0.255  
G09  24178050.938       20137.298         479.317           0.255  
> 2026 02 15 23 35 46.1688020  0  7                     
G02  23511475.195       60409.021        1330.270           0.255  
G03  24014610.236      201699.201        4511.061           0.255  
G04  20992075.175      143577.614        3241.050           0.255  
G05  20615280.960       67913.646        1549.006           0.255  
G06  24012565.946      212315.006        4915.113           0.255  
G07  22048491.424       54657.248        1277.077           0.255  
G09  24178037.750       20185.096         476.116           0.255  
> 2026 02 15 23 35 46.2688020  0  7                     
G02  23511447.024       60542.083        1330.596           0.255  
G03  24014488.005      202150.372        4512.680           0.255  
G04  20991989.777      143901.850        3241.599           0.255  
G05  20615244.114       68068.742        1551.007           0.255  
G06  24012436.764      212806.602        4916.085           0.255  
G07  22048459.655       54785.254        1278.393           0.255  
G09  24178022.192       20233.104         479.564           0.255  
> 2026 02 15 23 35 46.3688020  0  7                     
G02  23511409.883       60674.442        1322.608           0.255  
G03  24014375.828      202600.838        4506.196           0.255  
G04  20991908.609      144225.358        3234.405           0.255  
G05  20615204.056       68223.106        1542.573           0.255  
G06  24012312.057      213297.469        4908.094           0.255  
G07  22048428.225       54912.495        1269.906           0.255  
G09  24178004.452       20280.322         469.653           0.255  
> 2026 02 15 23 35 46.4688020  0  7                     
G02  23511377.579       60807.602        1366.027           0.255  
G03  24014257.793      203051.292        4509.798           0.255  
G04  20991828.692      144549.181        3300.739           0.255  
G05  20615164.435       68377.531        1546.944           0.255  
G06  24012188.273      213788.384        4909.700           0.255  
G07  22048393.986       55039.794        1273.158           0.255  
G09  24177996.384       20327.609         474.307           0.255  
> 2026 02 15 23 35 46.5688020  0  7                     
G02  23511343.514       60939.559        1325.694           0.255  
G03  24014143.259      203502.100        4506.672           0.255  
G04  20991749.094      144872.793        3236.967           0.255  
G05  20615122.539       68532.279        1547.912           0.255  
G06  24012057.848      214279.655        4912.763           0.255  
G07  22048359.260       55167.460        1278.242           0.255  
G09  24177982.712       20375.218         478.206           0.255  
> 2026 02 15 23 35 46.6688020  0  7                     
G02  23511309.302       61072.241        1329.443           0.255  
G03  24014027.002      203952.870        4507.159           0.255  
G04  20991666.490      145196.619        3237.664           0.255  
G05  20615083.440       68686.960        1549.195           0.255  
G06  24011935.500      214770.859        4914.354           0.255  
G07  22048328.559       55295.068        1281.673           0.255  
G09  24177969.052       20422.758         476.181           0.255  
> 2026 02 15 23 35 46.7688020  0  7                     
G02  23511271.455       61205.487        1332.364           0.255  
G03  24013919.556      204404.262        4513.066           0.255  
G04  20991581.497      145521.051        3243.775           0.255  
G05  20615043.802       68842.258        1552.801           0.255  
G06  24011817.669      215262.696        4919.021           0.255  
G07  22048295.882       55423.234        1281.872           0.255  
G09  24177958.577       20470.912         479.176           0.255  
> 2026 02 15 23 35 46.8688020  0  7                     
G02  23511242.556       61338.205        1324.345           0.255  
G03  24013806.521      204855.111        4504.914           0.255  
G04  20991495.098      145844.952        3235.500           0.255  
G05  20615005.011       68996.992        1543.029           0.255  
G06  24011686.142      215753.947        4908.607           0.255  
G07  22048260.830       55550.866        1273.052           0.255  
G09  24177953.425       20518.544         470.210           0.255  
> 2026 02 15 23 35 46.9688020  0  7                     
G02  23511211.480       61471.040        1331.234           0.255  
G03  24013684.500      205306.063        4515.508           0.255  
G04  20991409.775      146168.936        3242.751           0.255  
G05  20614965.448       69151.836        1551.206           0.255  
G06  24011556.092      216245.326        4917.497           0.255  
G07  22048227.936       55678.636        1282.507           0.255  
G09  24177941.282       20566.247         480.953           0.255  
> 2026 02 15 23 35 47.0688020  0  7                     
G02  23511175.897       61604.451        1339.298           0.255  
G03  24013568.537      205757.583        4519.554           0.255  
G04  20991329.279      146493.510        3249.929           0.255  
G05  20614922.160       69307.296        1559.692           0.255  
G06  24011435.687      216737.313        4923.968           0.255  
G07  22048197.879       55806.970        1288.027           0.255  
G09  24177929.656       20614.586         485.861           0.255  
> 2026 02 15 23 35 47.1688020  0  7                     
G02  23511136.036       61739.008        1469.162           0.255  
G03  24013457.120      206209.679        4518.218           0.255  
G04  20991250.988      146818.657        3249.229           0.255  
G05  20614881.071       69463.279        1557.807           0.255  
G06  24011309.213      217229.837        4923.941           0.255  
G07  22048164.849       55936.389        1383.141           0.255  
G09  24177916.527       20663.442         487.252           0.255  
> 2026 02 15 23 35 47.2688020  0  7                     
G02  23511101.429       61871.938        1335.944           0.255  
G03  24013338.015      206661.330        4515.395           0.255  
G04  20991171.429      147143.344        3248.559           0.255  
G05  20614840.640       69618.840        1556.424           0.255  
G06  24011181.065      217721.920        4922.986           0.255  
G07  22048130.606       56064.329        1285.021           0.255  
G09  24177906.004       20711.870         486.266           0.255  
> 2026 02 15 23 35 47.3688020  0  7                     
G02  23511070.407       62005.357        1333.906           0.255  
G03  24013217.968      207112.862        4513.914           0.255  
G04  20991086.196      147467.912        3244.965           0.255  
G05  20614802.327       69774.287        1554.145           0.255  
G06  24011061.366      218213.907        4919.322           0.255  
G07  22048100.518       56192.694        1283.605           0.255  
G09  24177890.109       20760.175         481.124           0.255  
> 2026 02 15 23 35 47.4688020  0  7                     
G02  23511039.154       62138.635        1332.093           0.255  
G03  24013106.154      207564.292        4512.506           0.255  
G04  20991000.140      147792.357        3242.812           0.255  
G05  20614766.270       69929.599        1552.310           0.255  
G06  24010938.063      218705.769        4916.441           0.255  
G07  22048065.750       56320.901        1279.818           0.255  
G09  24177870.974       20808.361         480.387           0.255  
> 2026 02 15 23 35 47.5688020  0  7                     
G02  23511004.131       62271.590        1327.807           0.255  
G03  24012995.695      208015.386        4509.222           0.255  
G04  20990913.055      148116.461        3238.646           0.255  
G05  20614726.547       70084.579        1548.002           0.255  
G06  24010805.888      219197.279        4913.883           0.255  
G07  22048037.475       56448.731        1271.242           0.255  
G09  24177851.234       20856.213         477.532           0.255  
> 2026 02 15 23 35 47.6688020  0  7                     
G02  23510972.433       62404.267        1328.605           0.255  
G03  24012880.904      208466.203        4509.601           0.255  
G04  20990830.530      148440.312        3238.899           0.255  
G05  20614684.369       70239.288        1546.852           0.255  
G06  24010681.787      219688.536        4912.029           0.255  
G07  22048003.938       56576.456        1278.190           0.255  
G09  24177840.479       20903.779         476.301           0.255  
> 2026 02 15 23 35 47.7688020  0  7                     
G02  23510936.637       62537.171        1323.953           0.255  
G03  24012759.326      208917.250        4506.305           0.255  
G04  20990750.719      148764.394        3237.251           0.255  
G05  20614643.404       70394.245        1545.537           0.255  
G06  24010558.933      220180.039        4912.765           0.255  
G07  22047968.028       56704.310        1276.249           0.255  
G09  24177831.431       20951.593         476.195           0.255  
> 2026 02 15 23 35 47.8688020  0  7                     
G02  23510899.255       62669.367        1323.179           0.255  
G03  24012646.928      209367.580        4504.326           0.255  
G04  20990671.655      149087.741        3234.023           0.255  
G05  20614603.292       70548.465        1544.499           0.255  
G06  24010428.308      220670.792        4907.218           0.255  
G07  22047935.958       56831.421        1271.571           0.255  
G09  24177820.857       20998.671         472.745           0.255  
> 2026 02 15 23 35 47.9688020  0  7                     
G02  23510864.367       62801.964        1328.000           0.255  
G03  24012536.194      209818.295        4505.564           0.255  
G04  20990590.990      149411.497        3237.998           0.255  
G05  20614560.877       70703.102        1548.901           0.255  
G06  24010303.448      221162.001        4915.295           0.255  
G07  22047907.006       56958.985        1276.592           0.255  
G09  24177807.800       21046.165         477.463           0.255  
> 2026 02 15 23 35 48.0688020  0  7                     
G02  23510835.675       62934.073        1380.747           0.255  
G03  24012418.180      210269.152        4509.800           0.255  
G04  20990506.161      149735.393        3228.471           0.255  
G05  20614520.393       70857.794        1548.283           0.255  
G06  24010189.757      221653.234        4912.727           0.255  
G07  22047873.042       57086.599        1277.671           0.255  
G09  24177802.168       21093.723         479.078           0.255  
> 2026 02 15 23 35 48.1688020  0  7                     
G02  23510799.395       63067.438        1326.064           0.255  
G03  24012294.624      210720.112        4506.738           0.255  
G04  20990417.570      150059.326        3235.318           0.255  
G05  20614483.010       71012.655        1545.262           0.255  
G06  24010060.879      222144.665        4908.679           0.255  
G07  22047843.393       57214.401        1275.304           0.255  
G09  24177795.110       21141.462         471.286           0.255  
> 2026 02 15 23 35 48.2688020  0  7                     
G02  23510763.065       63199.760        1322.974           0.255  
G03  24012184.582      211170.548        4503.093           0.255  
G04  20990332.905      150382.806        3234.234           0.255  
G05  20614446.889       71167.002        1543.953           0.255  
G06  24009928.084      222635.570        4907.393           0.255  
G07  22047809.390       57341.670        1274.779           0.255  
G09  24177778.901       21188.673         469.075           0.255  
> 2026 02 15 23 35 48.3688020  0  7                     
G02  23510731.254       63332.048        1335.473           0.255  
G03  24012072.885      211621.123        4498.745           0.255  
G04  20990254.742      150706.402        3229.372           0.255  
G05  20614406.695       71321.465        1537.765           0.255  
G06  24009807.052      223126.597        4903.934           0.255  
G07  22047773.670       57469.054        1267.979           0.255  
G09  24177767.747       21235.997         466.705           0.255  
> 2026 02 15 23 35 48.4688020  0  7                     
G02  23510697.180       63463.902        1318.915           0.255  
G03  24011956.532      212071.013        4499.830           0.255  
G04  20990175.807      151029.304        3231.191           0.255  
G05  20614366.595       71475.251        1540.554           0.255  
G06  24009679.209      223616.948        4905.436           0.255  
G07  22047742.483       57595.695        1314.512           0.255  
G09  24177754.345       21282.604         466.244           0.255  
> 2026 02 15 23 35 48.5688020  0  7                     
G02  23510662.655       63596.188        1326.766           0.255  
G03  24011841.484      212521.456        4507.598           0.255  
G04  20990093.406      151352.739        3237.884           0.255  
G05  20614326.548       71629.568        1547.816           0.255  
G06  24009549.204      224107.825        4912.956           0.255  
G07  22047711.415       57722.975        1275.675           0.255  
G09  24177741.673       21329.786         474.346           0.255  
> 2026 02 15 23 35 48.6688020  0  7                     
G02  23510625.638       63729.091        1328.300           0.255  
G03  24011733.175      212972.530        4511.973           0.255  
G04  20990009.801      151676.819        3240.708           0.255  
G05  20614285.671       71784.515        1550.055           0.255  
G06  24009429.132      224599.363        4915.354           0.255  
G07  22047679.962       57850.846        1278.958           0.255  
G09  24177724.112       21377.615         479.270           0.255  
> 2026 02 15 23 35 48.7688020  0  7                     
G02  23510598.219       63862.006        1333.259           0.255  
G03  24011617.679      213423.787        4513.717           0.255  
G04  20989922.871      152001.173        3265.737           0.255  
G05  20614243.754       71939.646        1551.385           0.255  
G06  24009309.320      225091.053        4917.908           0.255  
G07  22047646.961       57978.905        1280.059           0.255  
G09  24177707.029       21425.630         482.414           0.255  
> 2026 02 15 23 35 48.8688020  0  7                     
G02  23510559.810       63995.231        1331.904           0.255  
G03  24011496.577      213874.967        4511.242           0.255  
G04  20989838.449      152325.295        3242.974           0.255  
G05  20614207.629       72094.747        1552.875           0.255  
G06  24009178.112      225582.712        4916.070           0.255  
G07  22047614.446       58106.904        1278.952           0.255  
G09  24177693.012       21473.542         476.982           0.255  
> 2026 02 15 23 35 48.9688020  0  7                     
G02  23510524.885       64128.083        1327.696           0.255  
G03  24011378.969      214326.004        4507.625           0.255  
G04  20989753.323      152649.304        3238.448           0.255  
G05  20614170.323       72249.645        1547.157           0.255  
G06  24009049.331      226074.188        4913.016           0.255  
G07  22047579.546       58234.765        1275.630           0.255  
G09  24177689.191       21521.278         473.662           0.255  
> 2026 02 15 23 35 49.0688020  0  7                     
G02  23510493.133       64260.971        1328.759           0.255  
G03  24011267.978      214777.073        4511.523           0.255  
G04  20989676.281      152973.352        3242.155           0.255  
G05  20614127.694       72404.573        1550.635           0.255  
G06  24008926.041      226565.699        4915.782           0.255  
G07  22047545.913       58362.654        1283.647           0.255  
G09  24177675.640       21569.096         478.853           0.255  
> 2026 02 15 23 35 49.1688020  0  7                     
G02  23510461.132       64394.352        1335.550           0.255  
G03  24011149.180      215228.642        4517.155           0.255  
G04  20989598.619      153297.894        3244.866           0.255  
G05  20614083.024       72560.002        1556.118           0.255  
G06  24008799.982      227057.691        4921.728           0.255  
G07  22047516.779       58490.998        1287.758           0.255  
G09  24177663.405       21617.356         485.445           0.255  
> 2026 02 15 23 35 49.2688020  0  7                     
G02  23510425.405       64527.539        1326.468           0.255  
G03  24011031.256      215680.024        4507.512           0.255  
G04  20989516.463      153622.582        3317.248           0.255  
G05  20614044.217       72715.234        1547.211           0.255  
G06  24008672.549      227549.523        4913.498           0.255  
G07  22047485.691       58619.175        1278.756           0.255  
G09  24177654.555       21665.455         477.833           0.255  
> 2026 02 15 23 35 49.3688020  0  7                     
G02  23510387.800       64659.858        1323.696           0.255  
G03  24010924.660      216130.511        4507.332           0.255  
G04  20989427.986      153945.756        3236.166           0.255  
G05  20614007.594       72869.592        1546.240           0.255  
G06  24008553.241      228040.464        4911.569           0.255  
G07  22047450.098       58746.463        1274.170           0.255  
G09  24177644.764       21712.692         477.664           0.255  
> 2026 02 15 23 35 49.4688020  0  7                     
G02  23510354.803       64792.155        1322.663           0.255  
G03  24010812.069      216580.998        4503.898           0.255  
G04  20989341.898      154269.237        3234.135           0.255  
G05  20613968.908       73023.941        1541.762           0.255  
G06  24008429.842      228531.411        4908.741           0.255  
G07  22047415.409       58873.765        1271.599           0.255  
G09  24177630.073       21759.876         470.848           0.255  
> 2026 02 15 23 35 49.5688020  0  7                     
G02  23510318.094       64924.576        1326.659           0.255  
G03  24010695.417      217031.575        4505.314           0.255  
G04  20989260.640      154592.806        3236.592           0.255  
G05  20613932.927       73178.409        1545.741           0.255  
G06  24008299.954      229022.478        4912.950           0.255  
G07  22047381.373       59001.153        1274.960           0.255  
G09  24177613.733       21807.178         473.579           0.255  
> 2026 02 15 23 35 49.6688020  0  7                     
G02  23510284.107       65056.904        1321.979           0.255  
G03  24010576.648      217482.151        4505.930           0.255  
G04  20989177.817      154916.325        3232.513           0.255  
G05  20613896.158       73332.817        1542.004           0.255  
G06  24008174.823      229513.476        4907.334           0.255  
G07  22047343.249       59128.529        1274.521           0.255  
G09  24177600.042       21854.422         468.878           0.255  
> 2026 02 15 23 35 49.7688020  0  7                     
G02  23510249.927       65189.051        1320.646           0.255  
G03  24010461.382      217932.475        4505.598           0.255  
G04  20989095.919      155239.645        3232.837           0.255  
G05  20613856.345       73487.017        1542.362           0.255  
G06  24008043.379      230004.266        4907.995           0.255  
G07  22047314.154       59255.654        1272.147           0.255  
G09  24177589.346       21901.495         469.274           0.255  
> 2026 02 15 23 35 49.8688020  0  7                     
G02  23510216.655       65321.287        1324.036           0.255  
G03  24010345.314      218382.906        4508.592           0.255  
G04  20989015.951      155563.057        3236.255           0.255  
G05  20613810.495       73641.301        1544.337           0.255  
G06  24007920.666      230495.147        4911.106           0.255  
G07  22047285.624       59382.899        1275.559           0.255  
G09  24177578.982       21948.628         473.021           0.255  
> 2026 02 15 23 35 49.9688020  0  7                     
G02  23510181.560       65453.024        1311.954           0.255  
G03  24010232.410      218832.826        4495.179           0.255  
G04  20988936.298      155885.967        3224.133           0.255  
G05  20613771.367       73795.100        1531.892           0.255  
G06  24007797.012      230985.546        4896.480           0.255  
G07  22047250.464       59509.603        1259.783           0.255  
G09  24177561.697       21995.274         458.834           0.255  
> 2026 02 15 23 35 50.0688020  0  7                     
G02  23510145.782       65584.494        1316.112           0.255  
G03  24010114.717      219282.498        4496.919           0.255  
G04  20988853.509      156208.609        3227.487           0.255  
G05  20613732.181       73948.609        1535.532           0.255  
G06  24007673.510      231475.694        4901.815           0.255  
G07  22047214.342       59636.096        1264.756           0.255  
G09  24177552.840       22041.661         467.645           0.255  
> 2026 02 15 23 35 50.1688020  0  7                     
G02  23510112.877       65716.343        1319.140           0.255  
G03  24009998.978      219732.517        4498.935           0.255  
G04  20988768.694      156531.609        3229.177           0.255  
G05  20613696.103       74102.496        1538.049           0.255  
G06  24007553.294      231966.199        4905.480           0.255  
G07  22047180.433       59762.926        1267.659           0.255  
G09  24177543.391       22088.371         467.205           0.255  
> 2026 02 15 23 35 50.2688020  0  7                     
G02  23510078.051       65848.666        1330.602           0.255  
G03  24009885.173      220183.050        4511.410           0.255  
G04  20988683.646      156855.097        3239.714           0.255  
G05  20613658.176       74256.897        1550.024           0.255  
G06  24007425.770      232457.192        4915.120           0.255  
G07  22047150.372       59890.258        1277.445           0.255  
G09  24177532.079       22135.581         478.387           0.255  
> 2026 02 15 23 35 50.3688020  0  7                     
G02  23510046.578       65981.873        1335.986           0.255  
G03  24009773.271      220634.499        4517.174           0.255  
G04  20988600.333      157179.501        3246.885           0.255  
G05  20613620.436       74412.186        1555.725           0.255  
G06  24007295.356      232949.103        4921.698           0.255  
G07  22047116.660       60018.744        1330.620           0.255  
G09  24177520.635       22183.733         486.049           0.255  
> 2026 02 15 23 35 50.4688020  0  7                     
G02  23510014.485       66115.640        1410.030           0.255  
G03  24009657.531      221086.014        4514.253           0.255  
G04  20988516.913      157503.955        3242.454           0.255  
G05  20613579.263       74567.523        1551.585           0.255  
G06  24007166.802      233441.069        4918.203           0.255  
G07  22047087.926       60146.829        1283.477           0.255  
G09  24177506.590       22231.935         481.395           0.255  
> 2026 02 15 23 35 50.5688020  0  7                     
G02  23509978.877       66247.874        1327.461           0.255  
G03  24009539.263      221536.890        4505.085           0.255  
G04  20988435.742      157827.828        3238.091           0.255  
G05  20613536.482       74722.275        1546.071           0.255  
G06  24007044.427      233932.417        4912.845           0.255  
G07  22047054.021       60274.545        1279.138           0.255  
G09  24177491.081       22279.516         475.039           0.255  
> 2026 02 15 23 35 50.6688020  0  7                     
G02  23509939.392       66380.724        1328.297           0.255  
G03  24009426.580      221987.983        4509.720           0.255  
G04  20988355.893      158151.873        3241.255           0.255  
G05  20613495.785       74877.219        1549.951           0.255  
G06  24006918.196      234423.992        4914.793           0.255  
G07  22047019.425       60402.408        1278.403           0.255  
G09  24177479.063       22327.303         476.463           0.255  
> 2026 02 15 23 35 50.7688020  0  7                     
G02  23509904.539       66513.939        1332.854           0.255  
G03  24009312.527      222439.454        4516.702           0.255  
G04  20988275.371      158476.261        3244.794           0.255  
G05  20613457.939       75032.500        1553.897           0.255  
G06  24006796.397      234915.879        4919.689           0.255  
G07  22046983.506       60530.640        1281.479           0.255  
G09  24177463.586       22375.436         481.393           0.255  
> 2026 02 15 23 35 50.8688020  0  7                     
G02  23509871.130       66647.305        1428.873           0.255  
G03  24009189.775      222891.116        4520.866           0.255  
G04  20988190.375      158800.917        3251.044           0.255  
G05  20613419.924       75188.033        1559.300           0.255  
G06  24006678.022      235408.046        4924.082           0.255  
G07  22046948.868       60659.134        1289.158           0.255  
G09  24177449.631       22423.802         485.689           0.255  
> 2026 02 15 23 35 50.9688020  0  7                     
G02  23509839.838       66780.599        1323.220           0.255  
G03  24009071.689      223342.553        4505.615           0.255  
G04  20988103.143      159125.260        3233.301           0.255  
G05  20613381.441       75343.290        1543.316           0.255  
G06  24006547.936      235899.931        4910.283           0.255  
G07  22046916.103       60787.369        1274.937           0.255  
G09  24177440.406       22471.876         467.716           0.255  
> 2026 02 15 23 35 51.0688020  0  7                     
G02  23509807.483       66912.639        1317.772           0.255  
G03  24008963.697      223792.791        4500.052           0.255  
G04  20988016.887      159448.466        3229.249           0.255  
G05  20613339.412       75497.372        1538.126           0.255  
G06  24006413.762      236390.632        4905.099           0.255  
G07  22046889.848       60914.430        1270.593           0.255  
G09  24177433.221       22518.821         464.921           0.255  
> 2026 02 15 23 35 51.1688020  0  7                     
G02  23509774.235       67044.817        1322.548           0.255  
G03  24008848.210      224243.228        4504.006           0.255  
G04  20987937.501      159771.836        3235.176           0.255  
G05  20613297.523       75651.653        1545.413           0.255  
G06  24006292.877      236881.556        4910.892           0.255  
G07  22046859.494       61041.184        1197.575           0.255  
G09  24177417.837       22565.922         470.442           0.255  
> 2026 02 15 23 35 51.2688020  0  7                     
G02  23509737.387       67176.932        1302.262           0.255  
G03  24008730.922      224693.847        4504.058           0.255  
G04  20987856.939      160095.378        3234.282           0.255  
G05  20613258.562       75806.102        1544.911           0.255  
G06  24006168.520      237372.653        4910.931           0.255  
G07  22046821.692       61169.054        1270.752           0.255  
G09  24177406.651       22613.245         473.546           0.255  
> 2026 02 15 23 35 51.3688020  0  7                     
G02  23509703.200       67309.495        1322.541           0.255  
G03  24008620.348      225144.345        4502.200           0.255  
G04  20987779.254      160418.834        3232.742           0.255  
G05  20613219.124       75960.446        1542.778           0.255  
G06  24006039.337      237863.593        4906.704           0.255  
G07  22046788.236       61296.364        1270.385           0.255  
G09  24177396.483       22660.420         469.193           0.255  
> 2026 02 15 23 35 51.4688020  0  7                     
G02  23509668.031       67441.711        1322.465           0.255  
G03  24008511.792      225594.825        4506.297           0.255  
G04  20987693.552      160742.220        3235.428           0.255  
G05  20613179.862       76114.727        1544.547           0.255  
G06  24005921.277      238354.535        4909.918           0.255  
G07  22046753.170       61423.634        1274.806           0.255  
G09  24177388.062       22707.547         472.834           0.255  
> 2026 02 15 23 35 51.5688020  0  7                     
G02  23509637.127       67574.503        1327.775           0.255  
G03  24008390.204      226045.919        4514.188           0.255  
G04  20987607.116      161066.204        3241.940           0.255  
G05  20613142.150       76269.614        1550.816           0.255  
G06  24005798.643      238846.073        4918.290           0.255  
G07  22046722.832       61551.520        1282.420           0.255  
G09  24177371.538       22755.287         481.518           0.255  
> 2026 02 15 23 35 51.6688020  0  7                     
G02  23509608.542       67707.705        1237.522           0.255  
G03  24008271.588      226497.298        4511.519           0.255  
G04  20987521.660      161390.525        3240.879           0.255  
G05  20613103.433       76424.846        1550.876           0.255  
G06  24005665.842      239337.954        4915.739           0.255  
G07  22046695.348       61679.692        1278.960           0.255  
G09  24177354.415       22803.323         477.673           0.255  
> 2026 02 15 23 35 51.7688020  0  7                     
G02  23509574.748       67840.645        1330.226           0.255  
G03  24008156.694      226948.504        4513.196           0.255  
G04  20987437.029      161714.652        3243.696           0.255  
G05  20613062.477       76579.881        1552.411           0.255  
G06  24005537.796      239829.646        4918.952           0.255  
G07  22046664.584       61807.685        1279.151           0.255  
G09  24177341.147       22851.210         480.280           0.255  
> 2026 02 15 23 35 51.8688020  0  7                     
G02  23509537.832       67973.371        1327.577           0.255  
G03  24008046.010      227399.487        4509.786           0.255  
G04  20987360.572      162038.561        3237.666           0.255  
G05  20613019.737       76734.697        1548.776           0.255  
G06  24005416.487      240321.113        4914.573           0.255  
G07  22046628.175       61935.495        1278.281           0.255  
G09  24177328.766       22898.849         475.806           0.255  
> 2026 02 15 23 35 51.9688020  0  7                     
G02  23509500.073       68105.518        1298.815           0.255  
G03  24007927.293      227850.402        4509.855           0.255  
G04  20987282.233      162362.402        3237.417           0.255  
G05  20612978.385       76889.435        1546.655           0.255  
G06  24005287.706      240812.521        4915.582           0.255  
G07  22046594.870       62063.226        1276.953           0.255  
G09  24177314.505       22946.436         473.457           0.255  
> 2026 02 15 23 35 52.0688020  0  7                     
G02  23509465.379       68239.147        1428.911           0.255  
G03  24007808.822      228301.208        4511.004           0.255  
G04  20987202.594      162686.087        3238.595           0.255  
G05  20612937.480       77044.028        1546.666           0.255  
G06  24005159.773      241303.755        4913.588           0.255  
G07  22046561.391       62190.820        1277.840           0.255  
G09  24177301.453       22993.860         475.115           0.255  
> 2026 02 15 23 35 52.1688020  0  7                     
G02  23509435.806       68371.138        1323.177           0.255  
G03  24007703.520      228752.015        4507.789           0.255  
G04  20987114.610      163009.834        3234.671           0.255  
G05  20612898.428       77198.677        1543.798           0.255  
G06  24005046.044      241795.064        4910.300           0.255  
G07  22046529.201       62318.441        1274.690           0.255  
G09  24177288.765       23041.362         474.295           0.255  
> 2026 02 15 23 35 52.2688020  0  7                     
G02  23509405.968       68503.466        1325.562           0.255  
G03  24007592.317      229202.572        4504.201           0.255  
G04  20987024.366      163333.314        3235.204           0.255  
G05  20612860.661       77353.071        1545.791           0.255  
G06  24004920.202      242286.112        4910.143           0.255  
G07  22046499.509       62445.788        1272.661           0.255  
G09  24177282.603       23088.559         471.662           0.255  
> 2026 02 15 23 35 52.3688020  0  7                     
G02  23509374.177       68635.278        1292.936           0.255  
G03  24007470.098      229653.312        4505.730           0.255  
G04  20986939.110      163656.967        3236.380           0.255  
G05  20612824.137       77507.614        1545.887           0.255  
G06  24004785.914      242777.339        4912.794           0.255  
G07  22046468.778       62573.649        1295.491           0.255  
G09  24177272.089       23135.936         472.021           0.255  
> 2026 02 15 23 35 52.4688020  0  7                     
G02  23509336.263       68768.201        1327.762           0.255  
G03  24007352.862      230103.862        4505.962           0.255  
G04  20986859.252      163980.420        3235.476           0.255  
G05  20612782.854       77661.976        1545.864           0.255  
G06  24004662.734      243268.366        4912.928           0.255  
G07  22046433.954       62700.666        1274.966           0.255  
G09  24177258.272       23183.127         472.541           0.255  
> 2026 02 15 23 35 52.5688020  0  7                     
G02  23509296.708       68900.700        1324.509           0.255  
G03  24007243.034      230554.651        4507.000           0.255  
G04  20986785.291      164304.109        3237.614           0.255  
G05  20612738.001       77816.564        1547.997           0.255  
G06  24004537.191      243759.653        4917.323           0.255  
G07  22046397.485       62828.251        1277.149           0.255  
G09  24177250.092       23230.550         475.764           0.255  
> 2026 02 15 23 35 52.6688020  0  7                     
G02  23509263.683       69033.050        1321.434           0.255  
G03  24007125.022      231005.267        4502.506           0.255  
G04  20986706.814      164627.617        3231.465           0.255  
G05  20612697.369       77970.974        1541.083           0.255  
G06  24004406.255      244250.713        4907.436           0.255  
G07  22046366.910       62955.648        1270.751           0.255  
G09  24177240.421       23277.808         469.404           0.255  
> 2026 02 15 23 35 52.7688020  0  7                     
G02  23509230.691       69165.223        1323.482           0.255  
G03  24007003.524      231455.739        4506.021           0.255  
G04  20986620.240      164950.970        3235.866           0.255  
G05  20612658.391       78125.221        1544.281           0.255  
G06  24004285.558      244741.652        4910.750           0.255  
G07  22046336.059       63082.900        1274.992           0.255  
G09  24177225.636       23324.891         471.669           0.255  
> 2026 02 15 23 35 52.8688020  0  7                     
G02  23509201.240       69297.550        1325.248           0.255  
G03  24006890.017      231906.288        4503.561           0.255  
G04  20986531.597      165274.472        3235.877           0.255  
G05  20612619.958       78279.632        1544.311           0.255  
G06  24004167.942      245232.749        4911.507           0.255  
G07  22046304.550       63210.280        1273.045           0.255  
G09  24177208.305       23372.127         473.964           0.255  
> 2026 02 15 23 35 52.9688020  0  7                     
G02  23509166.524       69430.314        1331.862           0.255  
G03  24006780.450      232357.391        4516.684           0.255  
G04  20986446.032      165598.418        3243.951           0.255  
G05  20612582.326       78434.504        1553.508           0.255  
G06  24004038.295      245724.291        4920.782           0.255  
G07  22046275.947       63338.142        1280.591           0.255  
G09  24177192.805       23419.809         483.673           0.255  
> 2026 02 15 23 35 53.0688020  0  7                     
G02  23509133.506       69563.352        1321.807           0.255  
G03  24006664.632      232808.709        4507.917           0.255  
G04  20986365.914      165922.644        3232.813           0.255  
G05  20612542.652       78589.636        1543.210           0.255  
G06  24003906.231      246216.113        4911.054           0.255  
G07  22046240.838       63466.280        1271.738           0.255  
G09  24177180.137       23467.756         473.357           0.255  
> 2026 02 15 23 35 53.1688020  0  7                     
G02  23509096.872       69695.602        1324.315           0.255  
G03  24006549.565      233259.236        4507.643           0.255  
G04  20986284.508      166246.077        3236.200           0.255  
G05  20612502.628       78743.969        1545.654           0.255  
G06  24003785.619      246707.130        4911.989           0.255  
G07  22046203.480       63593.607        1275.327           0.255  
G09  24177170.513       23514.929         473.425           0.255  
> 2026 02 15 23 35 53.2688020  0  7                     
G02  23509062.940       69827.904        1323.500           0.255  
G03  24006435.407      233709.843        4508.912           0.255  
G04  20986206.111      166569.555        3236.734           0.255  
G05  20612462.424       78898.352        1545.119           0.255  
G06  24003657.205      247198.200        4912.927           0.255  
G07  22046170.110       63721.009        1276.171           0.255  
G09  24177158.740       23562.189         477.065           0.255  
> 2026 02 15 23 35 53.3688020  0  7                     
G02  23509029.594       69960.170        1319.881           0.255  
G03  24006324.947      234160.380        4502.216           0.255  
G04  20986124.115      166893.003        3231.817           0.255  
G05  20612421.635       79052.710        1539.957           0.255  
G06  24003527.931      247689.251        4908.076           0.255  
G07  22046142.453       63848.353        1268.544           0.255  
G09  24177147.079       23609.316         468.905           0.255  
> 2026 02 15 23 35 53.4688020  0  7                     
G02  23509001.273       70092.671        1332.641           0.255  
G03  24006205.218      234611.152        4515.318           0.255  
G04  20986039.163      167216.659        3244.437           0.255  
G05  20612383.233       79207.277        1552.535           0.255  
G06  24003410.345      248180.522        4919.397           0.255  
G07  22046110.102       63975.913        1279.605           0.255  
G09  24177137.387       23656.718         480.649           0.255  
> 2026 02 15 23 35 53.5688020  0  7                     
G02  23508966.716       70225.645        1322.990           0.255  
G03  24006085.043      235062.440        4505.233           0.255  
G04  20985951.729      167540.817        3234.214           0.255  
G05  20612343.801       79362.359        1544.625           0.255  
G06  24003289.343      248672.300        4911.333           0.255  
G07  22046075.241       64103.980        1271.140           0.255  
G09  24177129.170       23704.616         473.140           0.255  
> 2026 02 15 23 35 53.6688020  0  7                     
G02  23508924.609       70358.286        1332.104           0.255  
G03  24005971.635      235513.366        4511.551           0.255  
G04  20985868.600      167864.634        3240.251           0.255  
G05  20612307.069       79517.080        1548.845           0.255  
G06  24003162.475      249163.722        4916.509           0.255  
G07  22046042.647       64231.716        1280.857           0.255  
G09  24177112.064       23752.164         478.361           0.255  
> 2026 02 15 23 35 53.7688020  0  7                     
G02  23508891.053       70490.872        1325.882           0.255  
G03  24005855.621      235964.289        4507.002           0.255  
G04  20985789.044      168188.413        3235.806           0.255  
G05  20612267.677       79671.763        1544.818           0.255  
G06  24003035.206      249655.127        4911.407           0.255  
G07  22046007.096       64359.431        1277.331           0.255  
G09  24177096.826       23799.664         471.348           0.255  
> 2026 02 15 23 35 53.8688020  0  7                     
G02  23508858.388       70623.323        1326.043           0.255  
G03  24005739.657      236415.024        4508.784           0.255  
G04  20985708.893      168512.010        3236.629           0.255  
G05  20612226.843       79826.303        1546.142           0.255  
G06  24002907.906      250146.350        4910.821           0.255  
G07  22045973.272       64486.958        1276.445           0.255  
G09  24177086.885       23847.062         476.187           0.255  
> 2026 02 15 23 35 53.9688020  0  7                     
G02  23508824.887       70756.037        1331.096           0.255  
G03  24005627.494      236866.034        4511.208           0.255  
G04  20985624.548      168835.905        3238.514           0.255  
G05  20612186.049       79981.102        1546.498           0.255  
G06  24002779.980      250637.875        4915.229           0.255  
G07  22045940.932       64614.768        1278.243           0.255  
G09  24177075.333       23894.665         477.731           0.255  
> 2026 02 15 23 35 54.0688020  0  7                     
G02  23508788.134       70888.677        1328.305           0.255  
G03  24005515.321      237317.004        4509.255           0.255  
G04  20985541.774      169159.751        3239.013           0.255  
G05  20612145.438       80135.866        1547.545           0.255  
G06  24002655.497      251129.347        4915.276           0.255  
G07  22045907.115       64742.552        1278.118           0.255  
G09  24177061.337       23942.238         476.375           0.255  
> 2026 02 15 23 35 54.1688020  0  7                     
G02  23508757.971       71021.221        1327.885           0.255  
G03  24005399.454      237767.885        4508.354           0.255  
G04  20985458.601      169483.471        3237.718           0.255  
G05  20612106.370       80290.507        1547.308           0.255  
G06  24002531.679      251620.717        4914.344           0.255  
G07  22045874.061       64870.189        1277.646           0.255  
G09  24177046.388       23989.681         474.111           0.255  
> 2026 02 15 23 35 54.2688020  0  7                     
G02  23508723.196       71153.611        1323.607           0.255  
G03  24005283.933      238218.573        4505.353           0.255  
G04  20985374.917      169807.035        3233.803           0.255  
G05  20612069.012       80444.977        1542.739           0.255  
G06  24002411.767      252111.916        4911.096           0.255  
G07  22045842.410       64997.673        1274.035           0.255  
G09  24177035.141       24037.014         473.320           0.255  
> 2026 02 15 23 35 54.3688020  0  7                     
G02  23508686.486       71285.163        1285.055           0.255  
G03  24005167.054      238668.754        4502.178           0.255  
G04  20985291.418      170130.092        3231.778           0.255  
G05  20612034.128       80598.953        1541.309           0.255  
G06  24002284.250      252602.593        4907.251           0.255  
G07  22045806.861       65124.535        1272.047           0.255  
G09  24177027.450       24083.781         468.944           0.255  
> 2026 02 15 23 35 54.4688020  0  7                     
G02  23508653.584       71417.862        1326.676           0.255  
G03  24005051.979      239119.467        4509.921           0.255  
G04  20985207.929      170453.660        3236.201           0.255  
G05  20611995.595       80753.433        1546.435           0.255  
G06  24002154.361      253093.808        4913.757           0.255  
G07  22045773.259       65252.162        1276.140           0.255  
G09  24177016.206       24131.088         473.916           0.255  
> 2026 02 15 23 35 54.5688020  0  7                     
G02  23508621.588       71550.582        1326.786           0.255  
G03  24004936.651      239570.493        4507.769           0.255  
G04  20985128.319      170777.537        3237.601           0.255  
G05  20611951.418       80908.226        1547.011           0.255  
G06  24002029.064      253585.331        4914.552           0.255  
G07  22045744.155       65379.981        1277.051           0.255  
G09  24177000.128       24178.703         476.796           0.255  
> 2026 02 15 23 35 54.6688020  0  7                     
G02  23508585.235       71682.856        1322.134           0.255  
G03  24004822.094      240021.138        4505.787           0.255  
G04  20985046.280      171101.023        3234.139           0.255  
G05  20611909.758       81062.636        1543.266           0.255  
G06  24001903.232      254076.458        4909.567           0.255  
G07  22045711.748       65507.409        1273.120           0.255  
G09  24176988.027       24225.920         471.588           0.255  
> 2026 02 15 23 35 54.7688020  0  7                     
G02  23508547.977       71815.281        1325.185           0.255  
G03  24004704.289      240471.867        4506.855           0.255  
G04  20984962.608      171424.630        3237.376           0.255  
G05  20611871.502       81217.155        1544.409           0.255  
G06  24001776.230      254567.694        4910.743           0.255  
G07  22045677.894       65634.950        1276.276           0.255  
G09  24176975.879       24273.269         476.768           0.255  
> 2026 02 15 23 35 54.8688020  0  7                     
G02  23508516.447       71947.850        1325.487           0.255  
G03  24004590.583      240922.778        4511.798           0.255  
G04  20984881.002      171748.800        3251.639           0.255  
G05  20611832.550       81371.833        1549.343           0.255  
G06  24001654.112      255059.095        4913.954           0.255  
G07  22045645.300       65762.629        1278.407           0.255  
G09  24176957.630       24320.747         477.223           0.255  
> 2026 02 15 23 35 54.9688020  0  7                     
G02  23508480.726       72080.061        1319.052           0.255  
G03  24004480.853      241373.347        4505.241           0.255  
G04  20984796.939      172071.782        3233.167           0.255  
G05  20611795.034       81526.150        1542.410           0.255  
G06  24001533.836      255550.145        4906.417           0.255  
G07  22045612.933       65889.987        1273.091           0.255  
G09  24176943.573       24367.883         470.229           0.255  
> 2026 02 15 23 35 55.0688020  0  7                     
G02  23508444.617       72212.405        1326.779           0.255  
G03  24004368.770      241824.005        4510.360           0.255  
G04  20984712.142      172395.304        3241.055           0.255  
G05  20611757.247       81680.591        1549.184           0.255  
G06  24001406.317      256041.351        4915.558           0.255  
G07  22045577.384       66017.456        1279.451           0.255  
G09  24176934.716       24415.137         476.705           0.255  
> 2026 02 15 23 35 55.1688020  0  7                     
G02  23508413.786       72345.075        1325.308           0.255  
G03  24004245.327      242274.988        4506.886           0.255  
G04  20984626.108      172719.149        3238.320           0.255  
G05  20611719.221       81835.374        1548.774           0.255  
G06  24001275.587      256532.868        4914.429           0.255  
G07  22045548.180       66145.271        1280.016           0.255  
G09  24176926.016       24462.727         477.441           0.255  
> 2026 02 15 23 35 55.2688020  0  7                     
G02  23508382.336       72477.438        1298.345           0.255  
G03  24004129.824      242726.200        4512.943           0.255  
G04  20984547.624      173042.657        3162.295           0.255  
G05  20611677.624       81990.299        1548.438           0.255  
G06  24001151.075      257024.540        4915.441           0.255  
G07  22045513.899       66273.257        1289.942           0.255  
G09  24176912.540       24510.457         474.043           0.255  
> 2026 02 15 23 35 55.3688020  0  7                     
G02  23508341.811       72610.619        1328.460           0.255  
G03  24004018.716      243177.252        4510.481           0.255  
G04  20984468.777      173367.023        3237.332           0.255  
G05  20611635.063       82145.103        1547.650           0.255  
G06  24001025.840      257516.100        4914.064           0.255  
G07  22045478.094       66401.050        1275.944           0.255  
G09  24176904.395       24558.096         475.886           0.255  
> 2026 02 15 23 35 55.4688020  0  7                     
G02  23508304.896       72743.214        1329.747           0.255  
G03  24003900.533      243628.228        4514.693           0.255  
G04  20984389.467      173690.821        3241.650           0.255  
G05  20611596.056       82299.815        1551.234           0.255  
G06  24000892.979      258007.580        4919.304           0.255  
G07  22045443.410       66528.816        1281.921           0.255  
G09  24176894.792       24605.609         477.399           0.255  
> 2026 02 15 23 35 55.5688020  0  7                     
G02  23508271.998       72876.640        1338.740           0.255  
G03  24003782.498      244079.967        4522.288           0.255  
G04  20984303.548      174015.447        3249.277           0.255  
G05  20611557.283       82455.368        1556.758           0.255  
G06  24000775.892      258499.864        4925.493           0.255  
G07  22045416.328       66656.583        1204.240           0.255  
G09  24176881.762       24653.936         483.730           0.255  
> 2026 02 15 23 35 55.6688020  0  7                     
G02  23508237.698       73010.149        1336.150           0.255  
G03  24003671.101      244531.817        4515.897           0.255  
G04  20984216.763      174340.121        3244.382           0.255  
G05  20611516.915       82610.976        1553.895           0.255  
G06  24000656.151      258992.209        4919.481           0.255  
G07  22045383.038       66786.028        1285.353           0.255  
G09  24176873.249       24702.382         480.866           0.255  
> 2026 02 15 23 35 55.7688020  0  7                     
G02  23508206.992       73142.991        1324.355           0.255  
G03  24003559.377      244983.049        4506.600           0.255  
G04  20984131.322      174664.179        3236.183           0.255  
G05  20611476.584       82765.954        1545.809           0.255  
G06  24000523.151      259483.972        4912.111           0.255  
G07  22045350.570       66914.044        1275.388           0.255  
G09  24176856.667       24750.189         474.990           0.255  
> 2026 02 15 23 35 55.8688020  0  7                     
G02  23508177.379       73274.969        1315.178           0.255  
G03  24003444.182      245433.377        4500.317           0.255  
G04  20984045.062      174987.319        3227.163           0.255  
G05  20611437.082       82920.014        1536.594           0.255  
G06  24000395.456      259974.807        4904.992           0.255  
G07  22045317.890       67041.155        1267.621           0.255  
G09  24176837.389       24797.042         462.999           0.255  
> 2026 02 15 23 35 55.9688020  0  7                     
G02  23508144.905       73406.948        1207.475           0.255  
G03  24003324.976      245883.730        4501.873           0.255  
G04  20983967.704      175310.558        3227.667           0.255  
G05  20611394.772       83074.122        1541.619           0.255  
G06  24000273.293      260465.683        4910.773           0.255  
G07  22045283.013       67168.305        1273.456           0.255  
G09  24176824.572       24843.943         468.707           0.255  
> 2026 02 15 23 35 56.0688020  0  7                     
G02  23508104.584       73538.664        1314.847           0.255  
G03  24003211.761      246333.811        4499.126           0.255  
G04  20983888.852      175633.400        3228.859           0.255  
G05  20611353.711       83227.947        1537.316           0.255  
G06  24000145.665      260956.274        4907.322           0.255  
G07  22045252.677       67295.189        1269.719           0.255  
G09  24176811.486       24890.591         465.190           0.255  
> 2026 02 15 23 35 56.1688020  0  7                     
G02  23508067.131       73670.952        1326.973           0.255  
G03  24003100.425      246784.486        4511.201           0.255  
G04  20983812.232      175956.881        3237.954           0.255  
G05  20611314.232       83382.377        1547.694           0.255  
G06  24000016.720      261447.434        4915.283           0.255  
G07  22045222.218       67422.622        1279.190           0.255  
G09  24176796.059       24937.804         472.319           0.255  
> 2026 02 15 23 35 56.2688020  0  7                     
G02  23508034.313       73803.215        1323.631           0.255  
G03  24002974.076      247235.109        4508.422           0.255  
G04  20983725.244      176280.332        3234.350           0.255  
G05  20611277.549       83536.758        1544.161           0.255  
G06  23999902.158      261938.579        4909.928           0.255  
G07  22045192.379       67550.039        1274.456           0.255  
G09  24176786.189       24985.022         473.198           0.255  
> 2026 02 15 23 35 56.3688020  0  7                     
G02  23508002.413       73935.712        1326.469           0.255  
G03  24002854.408      247686.001        4512.269           0.255  
G04  20983634.966      176604.022        3238.602           0.255  
G05  20611242.397       83691.384        1549.498           0.255  
G06  23999781.568      262429.997        4916.325           0.255  
G07  22045159.875       67677.720        1279.242           0.255  
G09  24176775.784       25032.457         480.151           0.255  
> 2026 02 15 23 35 56.4688020  0  7                     
G02  23507974.551       74067.852        1318.008           0.255  
G03  24002750.499      248136.474        4500.596           0.255  
G04  20983549.504      176927.315        3229.375           0.255  
G05  20611203.238       83845.609        1539.147           0.255  
G06  23999646.914      262920.997        4905.497           0.255  
G07  22045126.831       67804.999        1267.896           0.255  
G09  24176764.603       25079.451         465.035           0.255  
> 2026 02 15 23 35 56.5688020  0  7                     
G02  23507940.563       74199.594        1321.308           0.255  
G03  24002635.592      248586.591        4504.295           0.255  
G04  20983470.523      177250.257        3232.516           0.255  
G05  20611159.904       83999.480        1541.502           0.255  
G06  23999522.766      263411.648        4907.676           0.255  
G07  22045091.931       67931.905        1270.773           0.255  
G09  24176757.223       25126.123         469.017           0.255  
> 2026 02 15 23 35 56.6688020  0  7                     
G02  23507901.414       74331.758        1322.134           0.255  
G03  24002512.860      249037.146        4508.714           0.255  
G04  20983394.231      177573.599        3234.525           0.255  
G05  20611118.211       84153.769        1544.559           0.255  
G06  23999397.653      263902.683        4912.418           0.255  
G07  22045056.926       68059.250        1275.011           0.255  
G09  24176747.199       25173.230         472.785           0.255  
> 2026 02 15 23 35 56.7688020  0  7                     
G02  23507866.133       74464.356        1325.440           0.255  
G03  24002404.988      249488.098        4507.891           0.255  
G04  20983313.391      177897.398        3238.651           0.255  
G05  20611076.038       84308.500        1548.167           0.255  
G06  23999263.988      264394.201        4915.029           0.255  
G07  22045026.460       68187.043        1277.694           0.255  
G09  24176734.401       25220.772         477.386           0.255  
> 2026 02 15 23 35 56.8688020  0  7                     
G02  23507834.456       74596.997        1329.250           0.255  
G03  24002298.087      249939.107        4512.658           0.255  
G04  20983229.155      178221.221        3241.862           0.255  
G05  20611034.518       84463.266        1550.937           0.255  
G06  23999142.148      264885.733        4918.677           0.255  
G07  22044997.844       68314.844        1279.275           0.255  
G09  24176727.666       25268.329         481.088           0.255  
> 2026 02 15 23 35 56.9688020  0  7                     
G02  23507803.532       74730.031        1331.084           0.255  
G03  24002180.536      250390.521        4514.943           0.255  
G04  20983141.350      178545.433        3243.129           0.255  
G05  20610997.161       84618.394        1551.955           0.255  
G06  23999025.228      265377.680        4921.120           0.255  
G07  22044965.858       68443.035        1281.833           0.255  
G09  24176712.483       25316.267         481.664           0.255  
> 2026 02 15 23 35 57.0688020  0  7                     
G02  23507770.197       74862.904        1326.549           0.255  
G03  24002056.769      250841.796        4511.046           0.255  
G04  20983054.293      178869.522        3240.476           0.255  
G05  20610959.583       84773.418        1549.587           0.255  
G06  23998896.387      265869.474        4915.809           0.255  
G07  22044933.268       68571.119        1279.081           0.255  
G09  24176689.989       25364.054         473.277           0.255  
> 2026 02 15 23 35 57.1688020  0  7                     
G02  23507739.428       74995.474        1324.844           0.255  
G03  24001942.931      251292.780        4507.811           0.255  
G04  20982972.395      179193.109        3216.967           0.255  
G05  20610922.447       84928.118        1544.141           0.255  
G06  23998767.666      266360.985        4910.833           0.255  
G07  22044895.603       68698.868        1271.232           0.255  
G09  24176675.378       25411.575         472.550           0.255  
> 2026 02 15 23 35 57.2688020  0  7                     
G02  23507701.487       75128.173        1408.851           0.255  
G03  24001829.246      251743.300        4503.749           0.255  
G04  20982895.771      179516.595        3233.065           0.255  
G05  20610880.489       85082.365        1541.281           0.255  
G06  23998645.133      266852.002        4909.635           0.255  
G07  22044859.530       68826.152        1269.688           0.255  
G09  24176663.479       25458.620         470.069           0.255  
> 2026 02 15 23 35 57.3688020  0  7                     
G02  23507666.743       75259.577        1321.244           0.255  
G03  24001710.038      252193.663        4506.216           0.255  
G04  20982817.926      179839.745        3233.389           0.255  
G05  20610839.118       85236.458        1542.014           0.255  
G06  23998519.188      267342.863        4908.677           0.255  
G07  22044830.861       68953.338        1273.058           0.255  
G09  24176649.725       25505.514         470.646           0.255  
> 2026 02 15 23 35 57.4688020  0  7                     
G02  23507631.050       75391.698        1321.427           0.255  
G03  24001594.267      252644.189        4507.446           0.255  
G04  20982733.396      180163.047        3232.282           0.255  
G05  20610801.152       85390.688        1541.709           0.255  
G06  23998387.765      267833.894        4908.060           0.255  
G07  22044803.627       69080.634        1271.914           0.255  
G09  24176640.570       25552.565         470.576           0.255  
> 2026 02 15 23 35 57.5688020  0  7                     
G02  23507600.416       75523.456        1320.063           0.255  
G03  24001483.720      253094.321        4501.124           0.255  
G04  20982648.587      180485.992        3230.741           0.255  
G05  20610761.043       85544.576        1541.318           0.255  
G06  23998266.179      268324.594        4908.123           0.255  
G07  22044768.455       69207.586        1269.781           0.255  
G09  24176626.965       25599.227         468.659           0.255  
> 2026 02 15 23 35 57.6688020  0  7                     
G02  23507569.523       75655.459        1321.860           0.255  
G03  24001373.712      253544.757        4506.371           0.255  
G04  20982560.447      180809.172        3233.925           0.255  
G05  20610719.848       85698.706        1543.490           0.255  
G06  23998148.236      268815.513        4910.766           0.255  
G07  22044735.044       69334.784        1271.986           0.255  
G09  24176618.421       25646.151         469.617           0.255  
> 2026 02 15 23 35 57.7688020  0  7                     
G02  23507539.622       75787.669        1319.688           0.255  
G03  24001255.825      253995.379        4509.489           0.255  
G04  20982476.242      181132.597        3234.780           0.255  
G05  20610683.444       85853.068        1542.715           0.255  
G06  23998018.421      269306.696        4912.712           0.255  
G07  22044699.979       69462.236        1274.606           0.255  
G09  24176612.538       25693.319         471.933           0.255  
> 2026 02 15 23 35 57.8688020  0  7                     
G02  23507504.311       75919.825        1317.495           0.255  
G03  24001139.249      254445.938        4503.438           0.255  
G04  20982395.127      181455.958        3230.054           0.255  
G05  20610645.022       86007.382        1539.253           0.255  
G06  23997890.752      269797.802        4907.481           0.255  
G07  22044664.316       69589.587        1269.835           0.255  
G09  24176596.668       25740.418         466.339           0.255  
> 2026 02 15 23 35 57.9688020  0  7                     
G02  23507464.732       76051.951        1322.876           0.255  
G03  24001025.487      254896.471        4506.295           0.255  
G04  20982317.519      181779.265        3234.457           0.255  
G05  20610601.289       86161.628        1543.434           0.255  
G06  23997766.344      270288.863        4909.104           0.255  
G07  22044632.908       69716.902        1272.554           0.255  
G09  24176583.838       25787.461         471.038           0.255  
> 2026 02 15 23 35 58.0688020  0  7                     
G02  23507428.213       76183.755        1313.771           0.255  
G03  24000907.971      255346.703        4497.484           0.255  
G04  20982238.909      182102.256        3224.091           0.255  
G05  20610559.451       86315.553        1531.431           0.255  
G06  23997635.611      270779.617        4902.225           0.255  
G07  22044604.889       69843.913        1264.763           0.255  
G09  24176578.630       25834.195         463.040           0.255  
> 2026 02 15 23 35 58.1688020  0  7                     
G02  23507397.017       76315.726        1323.610           0.255  
G03  24000791.142      255797.081        4508.146           0.255  
G04  20982154.202      182425.435        3235.673           0.255  
G05  20610522.512       86469.685        1545.785           0.255  
G06  23997510.126      271270.545        4914.175           0.255  
G07  22044571.358       69971.104        1275.267           0.255  
G09  24176562.156       25881.085         473.985           0.255  
> 2026 02 15 23 35 58.2688020  0  7                     
G02  23507366.741       76448.075        1321.081           0.255  
G03  24000672.457      256247.871        4503.292           0.255  
G04  20982070.334      182748.973        3234.448           0.255  
G05  20610487.188       86624.161        1544.686           0.255  
G06  23997387.292      271761.864        4910.861           0.255  
G07  22044536.480       70098.631        1272.456           0.255  
G09  24176541.709       25928.344         468.699           0.255  
> 2026 02 15 23 35 58.3688020  0  7                     
G02  23507332.688       76580.595        1327.256           0.255  
G03  24000563.169      256698.829        4514.851           0.255  
G04  20981984.659      183072.676        3240.765           0.255  
G05  20610448.623       86778.806        1548.888           0.255  
G06  23997266.801      272253.320        4917.185           0.255  
G07  22044501.459       70226.369        1279.890           0.255  
G09  24176528.890       25975.791         476.573           0.255  
> 2026 02 15 23 35 58.4688020  0  7                     
G02  23507299.422       76712.984        1321.986           0.255  
G03  24000452.936      257149.649        4508.424           0.255  
G04  20981902.158      183396.275        3236.806           0.255  
G05  20610411.299       86933.353        1545.676           0.255  
G06  23997140.099      272744.703        4914.285           0.255  
G07  22044466.522       70354.009        1275.166           0.255  
G09  24176516.000       26023.146         474.866           0.255  
> 2026 02 15 23 35 58.5688020  0  7                     
G02  23507263.900       76845.615        1326.464           0.255  
G03  24000334.917      257600.683        4512.988           0.255  
G04  20981818.779      183720.081        3240.241           0.255  
G05  20610371.551       87088.098        1547.767           0.255  
G06  23997012.972      273236.277        4917.950           0.255  
G07  22044431.108       70481.834        1277.899           0.255  
G09  24176507.722       26070.686         476.789           0.255  
> 2026 02 15 23 35 58.6688020  0  7                     
G02  23507229.239       76977.867        1322.400           0.255  
G03  24000220.400      258051.377        4504.023           0.255  
G04  20981737.010      184043.542        3235.688           0.255  
G05  20610329.325       87242.508        1544.100           0.255  
G06  23996887.634      273727.528        4912.937           0.255  
G07  22044403.517       70609.322        1274.910           0.255  
G09  24176498.310       26117.878         469.982           0.255  
> 2026 02 15 23 35 58.7688020  0  7                     
G02  23507197.082       77110.407        1330.682           0.255  
G03  24000104.229      258502.357        4512.116           0.255  
G04  20981657.391      184367.286        3241.877           0.255  
G05  20610285.672       87397.202        1550.188           0.255  
G06  23996759.602      274219.065        4919.823           0.255  
G07  22044373.422       70737.089        1281.307           0.255  
G09  24176487.901       26165.362         479.052           0.255  
> 2026 02 15 23 35 58.8688020  0  7                     
G02  23507161.444       77242.789        1318.623           0.255  
G03  23999994.450      258953.181        4501.381           0.255  
G04  20981575.525      184690.858        3232.662           0.255  
G05  20610245.319       87551.732        1540.427           0.255  
G06  23996631.728      274710.402        4908.582           0.255  
G07  22044336.307       70864.707        1272.495           0.255  
G09  24176475.937       26212.660         468.819           0.255  
> 2026 02 15 23 35 58.9688020  0  7                     
G02  23507129.403       77374.656        1323.120           0.255  
G03  23999872.176      259403.485        4506.701           0.255  
G04  20981492.980      185013.928        3234.462           0.255  
G05  20610207.804       87705.736        1543.383           0.255  
G06  23996512.223      275201.252        4911.969           0.255  
G07  22044301.496       70991.791        1272.561           0.255  
G09  24176463.502       26259.447         471.978           0.255  
> 2026 02 15 23 35 59.0688020  0  7                     
G02  23507094.016       77506.437        1315.730           0.255  
G03  23999753.908      259853.682        4496.689           0.255  
G04  20981406.717      185336.866        3227.566           0.255  
G05  20610170.293       87859.643        1536.911           0.255  
G06  23996392.133      275692.019        4906.436           0.255  
G07  22044265.692       71118.790        1268.022           0.255  
G09  24176448.284       26306.158         466.152           0.255  
> 2026 02 15 23 35 59.1688020  0  7                     
G02  23507059.527       77638.181        1314.961           0.255  
G03  23999640.363      260303.917        4498.402           0.255  
G04  20981322.684      185659.832        3227.453           0.255  
G05  20610133.560       88013.534        1536.368           0.255  
G06  23996264.572      276182.766        4907.105           0.255  
G07  22044236.025       71245.772        1267.409           0.255  
G09  24176431.794       26352.814         464.100           0.255  
> 2026 02 15 23 35 59.2688020  0  7                     
G02  23507021.912       77769.051        1229.718           0.255  
G03  23999529.338      260754.087        4498.169           0.255  
G04  20981240.465      185982.737        3227.454           0.255  
G05  20610095.151       88167.425        1536.913           0.255  
G06  23996137.287      276673.482        4904.627           0.255  
G07  22044207.933       71372.737        1265.776           0.255  
G09  24176422.103       26399.504         464.685           0.255  
> 2026 02 15 23 35 59.3688020  0  7                     
G02  23506992.367       77902.026        1329.754           0.255  
G03  23999415.831      261204.659        4513.927           0.255  
G04  20981157.451      186306.062        3242.948           0.255  
G05  20610053.171       88321.698        1551.388           0.255  
G06  23996011.969      277164.616        4919.727           0.255  
G07  22044176.794       71500.107        1280.620           0.255  
G09  24176412.380       26446.562         480.136           0.255  
> 2026 02 15 23 35 59.4688020  0  7                     
G02  23506956.946       78035.248        1338.407           0.255  
G03  23999295.457      261656.341        4521.547           0.255  
G04  20981078.855      186630.490        3251.323           0.255  
G05  20610011.837       88477.088        1559.162           0.255  
G06  23995885.883      277656.853        4927.426           0.255  
G07  22044140.150       71628.593        1289.186           0.255  
G09  24176392.889       26494.730         488.022           0.255  
> 2026 02 15 23 35 59.5688020  0  7                     
G02  23506925.069       78168.850        1330.868           0.255  
G03  23999184.493      262108.396        4514.064           0.255  
G04  20980998.708      186955.282        3243.302           0.255  
G05  20609971.696       88632.809        1551.396           0.255  
G06  23995756.301      278149.432        4919.655           0.255  
G07  22044106.192       71757.434        1281.966           0.255  
G09  24176380.415       26543.225         478.629           0.255  
> 2026 02 15 23 35 59.6688020  0  7                     
G02  23506888.496       78301.310        1251.446           0.255  
G03  23999071.106      262559.244        4503.977           0.255  
G04  20980913.822      187278.833        3234.471           0.255  
G05  20609932.561       88787.325        1544.871           0.255  
G06  23995636.966      278640.807        4913.258           0.255  
G07  22044071.170       71885.017        1273.846           0.255  
G09  24176370.482       26590.539         472.991           0.255  
> 2026 02 15 23 35 59.7688020  0  7                     
G02  23506854.031       78433.570        1324.479           0.255  
G03  23998952.670      263010.037        4508.238           0.255  
G04  20980825.727      187602.371        3234.947           0.255  
G05  20609895.543       88941.809        1544.882           0.255  
G06  23995514.635      279132.169        4912.978           0.255  
G07  22044037.798       72012.601        1276.236           0.255  
G09  24176364.192       26637.799         472.461           0.255  
> 2026 02 15 23 35 59.8688020  0  7                     
G02  23506819.287       78566.032        1320.610           0.255  
G03  23998830.508      263460.990        4507.078           0.255  
G04  20980741.076      187926.052        3234.171           0.255  
G05  20609855.896       89096.439        1544.023           0.255  
G06  23995385.113      279623.654        4912.479           0.255  
G07  22044009.705       72140.355        1276.417           0.255  
G09  24176355.473       26685.249         476.650           0.255  
> 2026 02 15 23 35 59.9688020  0  7                     
G02  23506787.100       78697.370        1299.767           0.255  
G03  23998721.442      263911.610        4503.456           0.255  
G04  20980659.507      188249.389        3230.110           0.255  
G05  20609813.373       89250.716        1538.859           0.255  
G06  23995257.502      280114.787        4906.907           0.255  
G07  22043979.482       72267.845        1311.488           0.255  
G09  24176343.786       26732.280         467.020           0.255  
> 2026 02 15 23 36 00.0688020  0  7                     
G02  23506753.522       78829.941        1317.406           0.255  
G03  23998605.942      264361.848        4499.110           0.255  
G04  20980583.295      188572.358        3228.019           0.255  
G05  20609770.798       89404.650        1537.137           0.255  
G06  23995133.711      280605.603        4907.683           0.255  
G07  22043946.199       72394.765        1268.564           0.255  
G09  24176328.933       26779.005         467.307           0.255  
> 2026 02 15 23 36 00.1688020  0  7                     
G02  23506716.439       78962.179        1324.734           0.255  
G03  23998488.000      264812.558        4505.548           0.255  
G04  20980501.708      188895.782        3233.725           0.255  
G05  20609731.795       89559.049        1544.771           0.255  
G06  23995002.492      281096.864        4912.885           0.255  
G07  22043911.593       72522.270        1276.196           0.255  
G09  24176317.486       26826.186         473.984           0.255  
> 2026 02 15 23 36 00.2688020  0  7                     
G02  23506682.289       79095.173        1330.934           0.255  
G03  23998374.596      265264.036        4517.003           0.255  
G04  20980419.730      189219.979        3241.420           0.255  
G05  20609695.092       89714.193        1551.234           0.255  
G06  23994878.162      281588.886        4921.124           0.255  
G07  22043878.564       72650.515        1282.249           0.255  
G09  24176304.003       26874.089         477.913           0.255  
> 2026 02 15 23 36 00.3688020  0  7                     
G02  23506647.276       79227.871        1327.804           0.255  
G03  23998265.532      265715.202        4512.641           0.255  
G04  20980335.109      189543.873        3241.419           0.255  
G05  20609658.041       89869.034        1549.827           0.255  
G06  23994758.356      282080.603        4920.611           0.255  
G07  22043845.072       72778.470        1281.048           0.255  
G09  24176285.288       26921.707         478.144           0.255  
> 2026 02 15 23 36 00.4688020  0  7                     
G02  23506611.522       79360.213        1326.614           0.255  
G03  23998149.556      266166.039        4505.759           0.255  
G04  20980246.708      189867.419        3234.862           0.255  
G05  20609620.189       90023.547        1543.674           0.255  
G06  23994638.324      282571.991        4913.525           0.255  
G07  22043815.238       72906.080        1274.249           0.255  
G09  24176271.216       26968.982         469.147           0.255  
> 2026 02 15 23 36 00.5688020  0  7                     
G02  23506577.448       79492.677        1331.302           0.255  
G03  23998032.489      266617.005        4515.136           0.255  
G04  20980162.222      190191.083        3241.818           0.255  
G05  20609579.238       90178.177        1551.401           0.255  
G06  23994506.389      283063.512        4921.415           0.255  
G07  22043787.174       73033.827        1283.191           0.255  
G09  24176264.286       27016.405         479.952           0.255  
> 2026 02 15 23 36 00.6688020  0  7                     
G02  23506548.466       79625.667        1322.607           0.255  
G03  23997916.707      267068.520        4509.759           0.255  
G04  20980082.287      190515.283        3234.334           0.255  
G05  20609538.155       90333.340        1544.131           0.255  
G06  23994381.766      283555.539        4912.360           0.255  
G07  22043753.351       73162.100        1274.731           0.255  
G09  24176248.023       27064.352         474.749           0.255  
> 2026 02 15 23 36 00.7688020  0  7                     
G02  23506513.714       79756.565        1264.451           0.255  
G03  23997805.973      267518.645        4501.548           0.255  
G04  20980007.134      190838.130        3229.790           0.255  
G05  20609493.924       90487.140        1537.897           0.255  
G06  23994256.533      284046.243        4907.289           0.255  
G07  22043715.731       73289.025        1269.119           0.255  
G09  24176234.520       27110.900         465.880           0.255  
> 2026 02 15 23 36 00.8688020  0  7                     
G02  23506476.026       79890.087        1398.391           0.255  
G03  23997684.922      267969.274        4508.189           0.255  
G04  20979925.789      191161.482        3234.570           0.255  
G05  20609452.617       90641.446        1544.079           0.255  
G06  23994125.360      284537.455        4912.790           0.255  
G07  22043683.214       73416.458        1277.252           0.255  
G09  24176226.093       27158.012         472.598           0.255  
> 2026 02 15 23 36 00.9688020  0  7                     
G02  23506440.594       80021.600        1320.942           0.255  
G03  23997566.303      268419.941        4506.667           0.255  
G04  20979841.184      191484.814        3232.348           0.255  
G05  20609413.193       90795.743        1542.674           0.255  
G06  23993998.106      285028.645        4912.061           0.255  
G07  22043654.584       73543.851        1273.850           0.255  
G09  24176219.166       27205.049         468.500           0.255  
> 2026 02 15 23 36 01.0688020  0  7                     
G02  23506409.200       80153.831        1323.057           0.255  
G03  23997457.658      268870.634        4508.787           0.255  
G04  20979755.173      191808.250        3235.946           0.255  
G05  20609375.017       90950.150        1546.224           0.255  
G06  23993881.068      285519.938        4914.941           0.255  
G07  22043621.169       73671.381        1277.796           0.255  
G09  24176209.917       27252.231         472.076           0.255  
> 2026 02 15 23 36 01.1688020  0  7                     
G02  23506375.919       80286.475        1279.422           0.255  
G03  23997345.225      269321.846        4504.521           0.255  
G04  20979669.444      192132.137        3232.887           0.255  
G05  20609337.923       91105.019        1543.129           0.255  
G06  23993754.380      286011.697        4912.988           0.255  
G07  22043588.263       73798.897        1215.913           0.255  
G09  24176196.747       27299.863         467.293           0.255  
> 2026 02 15 23 36 01.2688020  0  7                     
G02  23506345.652       80418.716        1323.419           0.255  
G03  23997226.742      269772.557        4506.037           0.255  
G04  20979585.466      192455.539        3233.090           0.255  
G05  20609300.262       91259.389        1544.598           0.255  
G06  23993625.890      286502.963        4912.512           0.255  
G07  22043556.626       73926.356        1182.928           0.255  
G09  24176178.955       27346.997         469.040           0.255  
> 2026 02 15 23 36 01.3688020  0  7                     
G02  23506312.245       80551.063        1324.166           0.255  
G03  23997113.311      270223.399        4507.550           0.255  
G04  20979503.828      192779.082        3237.104           0.255  
G05  20609259.973       91413.895        1547.571           0.255  
G06  23993503.006      286994.386        4918.141           0.255  
G07  22043520.426       74054.485        1277.742           0.255  
G09  24176166.211       27394.286         474.680           0.255  
> 2026 02 15 23 36 01.4688020  0  7                     
G02  23506274.164       80683.643        1321.122           0.255  
G03  23997000.280      270674.517        4508.161           0.255  
G04  20979427.135      193102.868        3234.948           0.255  
G05  20609218.055       91568.629        1543.978           0.255  
G06  23993378.517      287486.030        4913.176           0.255  
G07  22043489.767       74182.355        1274.724           0.255  
G09  24176155.741       27441.794         470.330           0.255  
> 2026 02 15 23 36 01.5688020  0  7                     
G02  23506238.594       80816.060        1325.538           0.255  
G03  23996886.133      271125.449        4513.403           0.255  
G04  20979345.996      193426.486        3239.019           0.255  
G05  20609176.716       91723.231        1549.099           0.255  
G06  23993246.243      287977.531        4920.090           0.255  
G07  22043456.602       74310.085        1281.815           0.255  
G09  24176137.252       27489.153         476.066           0.255  
> 2026 02 15 23 36 01.6688020  0  7                     
G02  23506204.328       80948.891        1326.292           0.255  
G03  23996763.924      271576.790        4512.698           0.255  
G04  20979261.355      193750.517        3240.933           0.255  
G05  20609137.915       91878.217        1549.208           0.255  
G06  23993122.132      288469.412        4917.206           0.255  
G07  22043425.665       74438.196        1281.305           0.255  
G09  24176123.026       27536.903         475.272           0.255  
> 2026 02 15 23 36 01.7688020  0  7                     
G02  23506171.009       81081.326        1321.914           0.255  
G03  23996647.084      272027.742        4508.395           0.255  
G04  20979174.658      194074.160        3235.608           0.255  
G05  20609100.049       92032.834        1545.732           0.255  
G06  23993005.463      288960.940        4913.679           0.255  
G07  22043392.176       74565.943        1277.837           0.255  
G09  24176114.227       27584.297         472.247           0.255  
> 2026 02 15 23 36 01.8688020  0  7                     
G02  23506138.959       81213.631        1320.435           0.255  
G03  23996527.606      272478.537        4508.029           0.255  
G04  20979090.313      194397.660        3232.459           0.255  
G05  20609062.068       92187.290        1542.210           0.255  
G06  23992877.602      289452.327        4911.671           0.255  
G07  22043360.062       74693.537        1275.519           0.255  
G09  24176102.310       27631.555         470.716           0.255  
> 2026 02 15 23 36 01.9688020  0  7                     
G02  23506108.022       81345.968        1320.694           0.255  
G03  23996419.042      272929.431        4506.065           0.255  
G04  20979009.820      194721.218        3235.047           0.255  
G05  20609020.402       92341.822        1544.744           0.255  
G06  23992749.604      289943.778        4914.357           0.255  
G07  22043326.921       74821.189        1276.187           0.255  
G09  24176090.084       27678.852         472.698           0.255  
> 2026 02 15 23 36 02.0688020  0  7                     
G02  23506073.522       81477.964        1323.749           0.255  
G03  23996305.410      273379.950        4507.080           0.255  
G04  20978927.760      195044.395        3234.334           0.255  
G05  20608978.315       92495.987        1543.076           0.255  
G06  23992626.190      290434.858        4913.262           0.255  
G07  22043292.352       74948.484        1274.717           0.255  
G09  24176077.902       27725.752         469.580           0.255  
> 2026 02 15 23 36 02.1688020  0  7                     
G02  23506034.394       81609.840        1317.492           0.255  
G03  23996188.573      273830.350        4500.735           0.255  
G04  20978846.894      195367.489        3228.996           0.255  
G05  20608938.320       92650.044        1539.083           0.255  
G06  23992496.452      290925.865        4909.632           0.255  
G07  22043261.040       75075.657        1266.905           0.255  
G09  24176070.170       27772.597         466.864           0.255  
> 2026 02 15 23 36 02.2688020  0  7                     
G02  23506000.410       81741.622        1316.045           0.255  
G03  23996077.996      274280.653        4502.926           0.255  
G04  20978762.979      195690.466        3230.110           0.255  
G05  20608899.715       92804.002        1540.237           0.255  
G06  23992369.203      291416.724        4909.703           0.255  
G07  22043227.386       75202.745        1269.769           0.255  
G09  24176058.915       27819.287         466.924           0.255  
> 2026 02 15 23 36 02.3688020  0  7                     
G02  23505969.059       81873.548        1320.527           0.255  
G03  23995962.726      274731.124        4507.402           0.255  
G04  20978680.770      196013.604        3234.588           0.255  
G05  20608863.211       92958.099        1543.820           0.255  
G06  23992248.272      291907.759        4913.617           0.255  
G07  22043194.570       75329.992        1274.842           0.255  
G09  24176046.514       27866.175         473.774           0.255  
> 2026 02 15 23 36 02.4688020  0  7                     
G02  23505940.297       82005.281        1312.766           0.255  
G03  23995847.579      275181.400        4502.349           0.255  
G04  20978595.938      196336.561        3226.139           0.255  
G05  20608825.179       93112.020        1535.782           0.255  
G06  23992126.299      292398.622        4906.573           0.255  
G07  22043159.244       75457.070        1267.308           0.255  
G09  24176029.308       27912.857         463.370           0.255  
> 2026 02 15 23 36 02.5688020  0  7                     
G02  23505910.501       82137.303        1323.268           0.255  
G03  23995727.365      275631.985        4510.802           0.255  
G04  20978512.067      196659.785        3237.055           0.255  
G05  20608787.523       93266.207        1545.521           0.255  
G06  23992001.803      292889.749        4916.402           0.255  
G07  22043126.677       75584.402        1277.797           0.255  
G09  24176014.608       27959.808         472.270           0.255  
> 2026 02 15 23 36 02.6688020  0  7                     
G02  23505873.762       82269.670        1322.628           0.255  
G03  23995614.849      276082.875        4509.237           0.255  
G04  20978429.720      196983.354        3235.819           0.255  
G05  20608746.575       93420.758        1545.539           0.255  
G06  23991873.593      293381.234        4914.975           0.255  
G07  22043092.445       75712.084        1277.025           0.255  
G09  24176008.807       28007.104         473.399           0.255  
> 2026 02 15 23 36 02.7688020  0  7                     
G02  23505835.614       82403.034        1393.637           0.255  
G03  23995498.893      276533.937        4512.236           0.255  
G04  20978350.553      197307.102        3239.532           0.255  
G05  20608703.405       93575.495        1550.945           0.255  
G06  23991745.855      293872.894        4921.202           0.255  
G07  22043062.541       75839.953        1279.782           0.255  
G09  24175994.874       28054.607         478.760           0.255  
> 2026 02 15 23 36 02.8688020  0  7                     
G02  23505803.969       82535.167        1329.923           0.255  
G03  23995380.199      276985.439        4516.521           0.255  
G04  20978269.348      197631.246        3241.802           0.255  
G05  20608663.041       93730.613        1553.071           0.255  
G06  23991619.736      294364.973        4922.222           0.255  
G07  22043028.141       75968.235        1282.832           0.255  
G09  24175980.961       28102.472         481.071           0.255  
> 2026 02 15 23 36 02.9688020  0  7                     
G02  23505768.904       82667.975        1326.691           0.255  
G03  23995266.465      277436.777        4509.623           0.255  
G04  20978187.313      197955.255        3235.995           0.255  
G05  20608623.479       93885.593        1546.165           0.255  
G06  23991489.763      294856.865        4917.345           0.255  
G07  22042992.330       76096.365        1277.523           0.255  
G09  24175972.719       28150.241         477.177           0.255  
> 2026 02 15 23 36 03.0688020  0  7                     
G02  23505738.085       82799.918        1315.599           0.255  
G03  23995161.679      277887.311        4500.681           0.255  
G04  20978102.788      198278.402        3224.901           0.255  
G05  20608584.587       94039.717        1535.629           0.255  
G06  23991369.594      295347.941        4906.983           0.255  
G07  22042958.824       76223.640        1266.537           0.255  
G09  24175959.547       28197.092         463.506           0.255  
> 2026 02 15 23 36 03.1688020  0  7                     
G02  23505702.251       82930.932        1312.260           0.255  
G03  23995044.765      278336.871        4496.083           0.255  
G04  20978016.866      198600.627        3221.755           0.255  
G05  20608547.629       94192.907        1531.283           0.255  
G06  23991249.307      295838.070        4900.838           0.255  
G07  22042930.065       76349.988        1262.441           0.255  
G09  24175948.227       28243.052         458.351           0.255  
> 2026 02 15 23 36 03.2688020  0  7                     
G02  23505672.010       83061.699        1211.331           0.255  
G03  23994925.264      278786.802        4502.013           0.255  
G04  20977931.618      198923.222        3227.733           0.255  
G05  20608512.012       94346.493        1537.182           0.255  
G06  23991122.745      296328.584        4903.875           0.255  
G07  22042897.128       76476.706        1267.923           0.255  
G09  24175933.527       28289.377         462.534           0.255  
> 2026 02 15 23 36 03.3688020  0  7                     
G02  23505636.449       83193.964        1320.712           0.255  
G03  23994807.880      279237.000        4505.040           0.255  
G04  20977852.011      199246.087        3232.644           0.255  
G05  20608472.588       94500.350        1542.992           0.255  
G06  23990994.823      296819.401        4910.645           0.255  
G07  22042864.861       76603.716        1275.159           0.255  
G09  24175918.875       28336.002         470.184           0.255  
> 2026 02 15 23 36 03.4688020  0  7                     
G02  23505600.772       83326.289        1323.306           0.255  
G03  23994695.925      279687.909        4509.655           0.255  
G04  20977772.556      199569.638        3236.034           0.255  
G05  20608429.231       94654.864        1545.325           0.255  
G06  23990867.899      297310.890        4915.867           0.255  
G07  22042832.340       76731.417        1279.063           0.255  
G09  24175909.245       28383.284         475.189           0.255  
> 2026 02 15 23 36 03.5688020  0  7                     
G02  23505564.810       83458.565        1340.422           0.255  
G03  23994580.380      280138.631        4502.686           0.255  
G04  20977692.928      199892.986        3228.868           0.255  
G05  20608387.395       94809.191        1538.113           0.255  
G06  23990739.771      297802.166        4909.072           0.255  
G07  22042795.628       76858.900        1271.271           0.255  
G09  24175898.448       28430.358         464.403           0.255  
> 2026 02 15 23 36 03.6688020  0  7                     
G02  23505535.817       83590.226        1323.815           0.255  
G03  23994457.593      280588.944        4505.102           0.255  
G04  20977609.452      200215.964        3233.437           0.255  
G05  20608350.718       94963.143        1542.966           0.255  
G06  23990613.041      298293.100        4914.061           0.255  
G07  22042762.734       76985.993        1274.578           0.255  
G09  24175879.113       28477.089         471.816           0.255  
> 2026 02 15 23 36 03.7688020  0  7                     
G02  23505503.011       83722.617        1322.548           0.255  
G03  23994347.025      281039.950        4507.397           0.255  
G04  20977526.439      200539.577        3234.612           0.255  
G05  20608312.272       95117.741        1544.341           0.255  
G06  23990493.204      298784.663        4914.610           0.255  
G07  22042732.486       77113.748        1275.801           0.255  
G09  24175866.543       28524.440         472.173           0.255  
> 2026 02 15 23 36 03.8688020  0  7                     
G02  23505472.589       83855.283        1330.847           0.255  
G03  23994237.497      281491.185        4515.427           0.255  
G04  20977439.385      200863.433        3243.709           0.255  
G05  20608272.057       95272.592        1552.946           0.255  
G06  23990371.483      299276.470        4922.758           0.255  
G07  22042698.607       77241.760        1284.236           0.255  
G09  24175859.971       28572.045         479.489           0.255  
> 2026 02 15 23 36 03.9688020  0  7                     
G02  23505434.885       83987.877        1319.892           0.255  
G03  23994125.700      281942.373        4506.570           0.255  
G04  20977352.062      201187.256        3232.326           0.255  
G05  20608232.053       95427.401        1542.357           0.255  
G06  23990240.966      299768.239        4912.774           0.255  
G07  22042665.364       77369.716        1272.555           0.255  
G09  24175850.759       28619.592         469.373           0.255  
> 2026 02 15 23 36 04.0688020  0  7                     
G02  23505399.304       84120.044        1321.847           0.255  
G03  23994004.773      282393.108        4508.210           0.255  
G04  20977270.385      201510.627        3236.288           0.255  
G05  20608192.984       95581.756        1546.761           0.255  
G06  23990114.911      300259.573        4916.076           0.255  
G07  22042636.733       77497.261        1276.953           0.255  
G09  24175836.175       28666.717         472.830           0.255  
> 2026 02 15 23 36 04.1688020  0  7                     
G02  23505364.230       84252.767        1326.167           0.255  
G03  23993887.767      282844.445        4512.364           0.255  
G04  20977192.893      201834.575        3238.563           0.255  
G05  20608151.744       95736.696        1549.947           0.255  
G06  23989992.864      300751.470        4918.551           0.255  
G07  22042602.915       77625.368        1280.118           0.255  
G09  24175826.374       28714.410         476.491           0.255  
> 2026 02 15 23 36 04.2688020  0  7                     
G02  23505331.019       84385.262        1321.609           0.255  
G03  23993779.916      283295.521        4508.017           0.255  
G04  20977114.466      202158.269        3235.282           0.255  
G05  20608108.655       95891.371        1544.867           0.255  
G06  23989860.038      301243.136        4913.896           0.255  
G07  22042565.612       77753.212        1275.995           0.255  
G09  24175816.730       28761.827         471.097           0.255  
> 2026 02 15 23 36 04.3688020  0  7                     
G02  23505299.440       84517.447        1321.396           0.255  
G03  23993659.063      283746.243        4506.559           0.255  
G04  20977031.368      202481.639        3233.035           0.255  
G05  20608070.986       96045.727        1541.973           0.255  
G06  23989733.317      301734.492        4914.530           0.255  
G07  22042534.195       77880.740        1276.229           0.255  
G09  24175801.829       28808.941         470.569           0.255  
> 2026 02 15 23 36 04.4688020  0  7                     
G02  23505261.199       84649.856        1326.344           0.255  
G03  23993540.334      284197.244        4511.259           0.255  
G04  20976945.721      202805.283        3240.148           0.255  
G05  20608034.023       96200.350        1547.465           0.255  
G06  23989616.011      302226.090        4918.732           0.255  
G07  22042502.900       78008.535        1283.031           0.255  
G09  24175787.201       28856.343         478.814           0.255  
> 2026 02 15 23 36 04.5688020  0  7                     
G02  23505228.927       84782.274        1323.298           0.255  
G03  23993425.689      284648.280        4510.301           0.255  
G04  20976859.236      203128.892        3234.963           0.255  
G05  20607995.177       96354.939        1543.764           0.255  
G06  23989491.211      302717.670        4914.296           0.255  
G07  22042472.445       78136.300        1276.727           0.255  
G09  24175772.433       28903.683         472.208           0.255  
> 2026 02 15 23 36 04.6688020  0  7                     
G02  23505194.787       84914.640        1328.447           0.255  
G03  23993314.782      285099.195        4516.328           0.255  
G04  20976775.346      203452.471        3241.169           0.255  
G05  20607954.521       96509.526        1550.775           0.255  
G06  23989362.807      303209.227        4919.364           0.255  
G07  22042442.086       78264.034        1281.109           0.255  
G09  24175757.149       28951.005         476.195           0.255  
> 2026 02 15 23 36 04.7688020  0  7                     
G02  23505160.349       85047.134        1323.073           0.255  
G03  23993196.787      285550.285        4506.720           0.255  
G04  20976693.525      203776.175        3232.919           0.255  
G05  20607914.482       96664.225        1543.656           0.255  
G06  23989237.201      303700.909        4912.924           0.255  
G07  22042407.002       78391.907        1274.508           0.255  
G09  24175746.946       28998.436         470.598           0.255  
> 2026 02 15 23 36 04.8688020  0  7                     
G02  23505124.399       85179.598        1379.117           0.255  
G03  23993081.463      286001.129        4509.008           0.255  
G04  20976614.128      204099.609        3235.310           0.255  
G05  20607872.963       96818.643        1545.896           0.255  
G06  23989112.824      304192.320        4914.574           0.255  
G07  22042371.154       78519.507        1276.740           0.255  
G09  24175731.082       29045.633         473.473           0.255  
> 2026 02 15 23 36 04.9688020  0  7                     
G02  23505090.544       85311.992        1330.176           0.255  
G03  23992969.523      286452.365        4514.036           0.255  
G04  20976534.598      204423.450        3241.480           0.255  
G05  20607829.959       96973.482        1551.062           0.255  
G06  23988982.824      304684.153        4919.626           0.255  
G07  22042340.793       78647.535        1283.542           0.255  
G09  24175718.548       29093.213         479.129           0.255  
> 2026 02 15 23 36 05.0688020  0  7                     
G02  23505059.518       85444.635        1323.037           0.255  
G03  23992857.869      286903.652        4510.197           0.255  
G04  20976451.074      204747.318        3236.356           0.255  
G05  20607791.627       97128.341        1545.345           0.255  
G06  23988858.042      305176.027        4913.262           0.255  
G07  22042311.198       78775.595        1276.996           0.255  
G09  24175709.628       29140.826         473.555           0.255  
> 2026 02 15 23 36 05.1688020  0  7                     
G02  23505023.804       85576.693        1322.878           0.255  
G03  23992734.829      287354.311        4509.999           0.255  
G04  20976363.062      205070.554        3234.569           0.255  
G05  20607756.007       97282.577        1545.500           0.255  
G06  23988740.650      305667.273        4915.131           0.255  
G07  22042277.801       78902.999        1279.217           0.255  
G09  24175707.048       29187.826         473.616           0.255  
> 2026 02 15 23 36 05.2688020  0  7                     
G02  23504989.431       85708.791        1335.360           0.255  
G03  23992618.268      287805.199        4502.935           0.255  
G04  20976277.256      205393.714        3246.735           0.255  
G05  20607718.350       97437.078        1540.019           0.255  
G06  23988611.856      306158.774        4910.112           0.255  
G07  22042244.902       79030.677        1271.072           0.255  
G09  24175690.487       29235.041         468.520           0.255  
> 2026 02 15 23 36 05.3688020  0  7                     
G02  23504954.997       85840.364        1317.630           0.255  
G03  23992508.615      288255.180        4499.894           0.255  
G04  20976198.299      205716.638        3228.560           0.255  
G05  20607678.920       97590.648        1537.736           0.255  
G06  23988484.713      306649.354        4908.818           0.255  
G07  22042210.209       79157.434        1271.215           0.255  
G09  24175678.521       29281.376         465.597           0.255  
> 2026 02 15 23 36 05.4688020  0  7                     
G02  23504923.569       85971.769        1314.319           0.255  
G03  23992393.342      288705.252        4500.457           0.255  
G04  20976120.530      206039.292        3226.328           0.255  
G05  20607635.038       97744.277        1535.455           0.255  
G06  23988364.505      307139.989        4904.128           0.255  
G07  22042176.291       79284.246        1269.102           0.255  
G09  24175667.084       29327.745         460.691           0.255  
> 2026 02 15 23 36 05.5688020  0  7                     
G02  23504888.603       86103.255        1314.556           0.255  
G03  23992270.507      289155.343        4502.278           0.255  
G04  20976039.934      206361.968        3228.007           0.255  
G05  20607593.951       97897.961        1535.905           0.255  
G06  23988234.789      307630.709        4907.842           0.255  
G07  22042145.174       79411.140        1269.361           0.255  
G09  24175655.497       29374.189         465.483           0.255  
> 2026 02 15 23 36 05.6688020  0  7                     
G02  23504851.798       86235.159        1318.981           0.255  
G03  23992160.445      289605.857        4503.456           0.255  
G04  20975957.535      206685.067        3230.452           0.255  
G05  20607556.047       98052.085        1541.176           0.255  
G06  23988105.509      308121.820        4911.178           0.255  
G07  22042117.161       79538.427        1271.907           0.255  
G09  24175639.236       29421.040         468.712           0.255  
> 2026 02 15 23 36 05.7688020  0  7                     
G02  23504817.045       86366.356        1314.657           0.255  
G03  23992050.038      290055.693        4501.043           0.255  
G04  20975871.630      207007.479        3227.020           0.255  
G05  20607516.300       98205.494        1536.555           0.255  
G06  23987983.799      308612.229        4907.820           0.255  
G07  22042083.415       79665.042        1268.055           0.255  
G09  24175626.226       29467.204         463.394           0.255  
> 2026 02 15 23 36 05.8688020  0  7                     
G02  23504784.405       86498.081        1325.520           0.255  
G03  23991936.234      290506.039        4508.659           0.255  
G04  20975786.334      207330.407        3236.467           0.255  
G05  20607479.004       98359.443        1546.658           0.255  
G06  23987860.356      309103.172        4916.872           0.255  
G07  22042052.727       79792.173        1277.263           0.255  
G09  24175612.514       29513.861         471.680           0.255  
> 2026 02 15 23 36 05.9688020  0  7                     
G02  23504750.116       86631.159        1372.899           0.255  
G03  23991816.546      290957.611        4505.330           0.255  
G04  20975700.308      207654.559        3232.303           0.255  
G05  20607440.167       98514.585        1542.473           0.255  
G06  23987734.498      309595.353        4912.694           0.255  
G07  22042018.086       79920.107        1226.719           0.255  
G09  24175600.698       29561.767         470.778           0.255  
> 2026 02 15 23 36 06.0688020  0  7                     
G02  23504718.992       86763.369        1419.917           0.255  
G03  23991699.338      291408.056        4503.163           0.255  
G04  20975620.564      207977.606        3231.810           0.255  
G05  20607401.178       98668.645        1543.915           0.255  
G06  23987608.279      310086.437        4912.560           0.255  
G07  22041981.219       80047.751        1273.732           0.255  
G09  24175592.673       29608.572         472.117           0.255  
> 2026 02 15 23 36 06.1688020  0  7                     
G02  23504684.755       86895.029        1326.694           0.255  
G03  23991588.043      291858.887        4510.386           0.255  
G04  20975542.818      208300.978        3236.201           0.255  
G05  20607358.164       98823.008        1546.266           0.255  
G06  23987484.684      310577.834        4915.633           0.255  
G07  22041948.705       80175.318        1278.628           0.255  
G09  24175576.563       29655.661         473.216           0.255  
> 2026 02 15 23 36 06.2688020  0  7                     
G02  23504648.339       87028.107        1331.664           0.255  
G03  23991471.486      292310.616        4521.908           0.255  
G04  20975463.299      208625.263        3245.242           0.255  
G05  20607317.454       98978.288        1554.835           0.255  
G06  23987357.787      311070.160        4924.334           0.255  
G07  22041920.785       80303.799        1287.343           0.255  
G09  24175567.977       29703.679         482.665           0.255  
> 2026 02 15 23 36 06.3688020  0  7                     
G02  23504613.983       87161.686        1322.449           0.255  
G03  23991350.476      292762.711        4520.896           0.255  
G04  20975377.428      208949.932        3246.947           0.255  
G05  20607280.329       99133.958        1556.288           0.255  
G06  23987226.300      311562.870        4927.530           0.255  
G07  22041890.115       80432.698        1288.630           0.255  
G09  24175557.885       29752.089         482.782           0.255  
> 2026 02 15 23 36 06.4688020  0  7                     
G02  23504580.976       87294.625        1327.464           0.255  
G03  23991236.893      293214.438        4515.657           0.255  
G04  20975291.980      209274.220        3241.358           0.255  
G05  20607240.384       99289.256        1550.530           0.255  
G06  23987102.748      312055.207        4923.654           0.255  
G07  22041853.344       80561.174        1283.001           0.255  
G09  24175545.314       29800.147         478.952           0.255  
> 2026 02 15 23 36 06.5688020  0  7                     
G02  23504547.425       87427.352        1328.516           0.255  
G03  23991127.064      293665.846        4515.159           0.255  
G04  20975207.412      209598.169        3238.917           0.255  
G05  20607200.244       99444.218        1548.925           0.255  
G06  23986981.262      312547.197        4920.865           0.255  
G07  22041818.090       80689.346        1281.865           0.255  
G09  24175532.848       29847.831         475.731           0.255  
> 2026 02 15 23 36 06.6688020  0  7                     
G02  23504513.894       87559.789        1323.268           0.255  
G03  23991015.300      294116.912        4506.572           0.255  
G04  20975122.630      209921.812        3232.815           0.255  
G05  20607163.331       99598.862        1542.561           0.255  
G06  23986853.595      313038.845        4913.110           0.255  
G07  22041781.568       80817.185        1275.141           0.255  
G09  24175513.471       29895.236         473.781           0.255  
> 2026 02 15 23 36 06.7688020  0  7                     
G02  23504483.748       87691.669        1317.272           0.255  
G03  23990897.851      294567.460        4504.259           0.255  
G04  20975039.917      210244.927        3231.572           0.255  
G05  20607123.938       99752.969        1539.833           0.255  
G06  23986726.601      313530.005        4911.234           0.255  
G07  22041749.404       80944.507        1272.787           0.255  
G09  24175498.073       29942.075         470.130           0.255  
> 2026 02 15 23 36 06.8688020  0  7                     
G02  23504446.435       87823.224        1313.395           0.255  
G03  23990781.676      295017.685        4503.724           0.255  
G04  20974959.155      210567.678        3226.627           0.255  
G05  20607080.838       99906.739        1537.224           0.255  
G06  23986601.176      314020.807        4905.016           0.255  
G07  22041719.088       81071.470        1269.511           0.255  
G09  24175491.400       29988.562         463.682           0.255  
> 2026 02 15 23 36 06.9688020  0  7                     
G02  23504407.774       87954.578        1314.982           0.255  
G03  23990668.908      295467.651        4498.543           0.255  
G04  20974880.952      210890.246        3227.221           0.255  
G05  20607040.212      100060.326        1538.907           0.255  
G06  23986475.494      314511.435        4908.090           0.255  
G07  22041688.228       81198.278        1271.036           0.255  
G09  24175478.591       30034.858         462.807           0.255  
> 2026 02 15 23 36 07.0688020  0  7                     
G02  23504375.184       88086.439        1322.547           0.255  
G03  23990554.263      295918.210        4509.532           0.255  
G04  20974799.481      211213.314        3233.471           0.255  
G05  20607003.018      100214.381        1542.587           0.255  
G06  23986348.181      315002.549        4913.880           0.255  
G07  22041653.624       81325.548        1276.454           0.255  
G09  24175465.536       30081.671         471.488           0.255  
> 2026 02 15 23 36 07.1688020  0  7                     
G02  23504343.594       88219.004        1328.333           0.255  
G03  23990435.432      296369.431        4511.125           0.255  
G04  20974713.137      211537.084        3236.678           0.255  
G05  20606967.308      100369.180        1548.263           0.255  
G06  23986224.935      315494.399        4917.302           0.255  
G07  22041618.342       81453.556        1280.535           0.255  
G09  24175457.308       30129.212         476.481           0.255  
> 2026 02 15 23 36 07.2688020  0  7                     
G02  23504315.929       88351.653        1328.928           0.255  
G03  23990317.085      296820.725        4517.215           0.255  
G04  20974629.354      211860.962        3240.524           0.255  
G05  20606928.544      100524.052        1551.366           0.255  
G06  23986103.058      315986.330        4922.271           0.255  
G07  22041583.795       81581.649        1284.676           0.255  
G09  24175448.112       30176.807         477.556           0.255  
> 2026 02 15 23 36 07.3688020  0  7                     
G02  23504281.693       88484.382        1319.854           0.255  
G03  23990203.796      297272.079        4504.688           0.255  
G04  20974545.216      212184.917        3231.858           0.255  
G05  20606889.884      100679.014        1541.856           0.255  
G06  23985975.134      316478.328        4913.068           0.255  
G07  22041550.488       81709.784        1270.392           0.255  
G09  24175433.786       30224.504         471.635           0.255  
> 2026 02 15 23 36 07.4688020  0  7                     
G02  23504245.708       88615.940        1316.737           0.255  
G03  23990090.133      297722.356        4496.145           0.255  
G04  20974462.481      212507.700        3227.550           0.255  
G05  20606847.810      100832.838        1540.399           0.255  
G06  23985851.030      316969.192        4908.918           0.255  
G07  22041520.621       81836.841        1269.837           0.255  
G09  24175421.347       30271.060         469.562           0.255  
> 2026 02 15 23 36 07.5688020  0  7                     
G02  23504206.378       88747.875        1321.358           0.255  
G03  23989978.248      298172.999        4506.888           0.255  
G04  20974382.211      212830.847        3232.035           0.255  
G05  20606804.936      100986.971        1543.247           0.255  
G06  23985724.685      317460.411        4913.725           0.255  
G07  22041491.097       81964.211        1272.564           0.255  
G09  24175410.317       30317.917         467.436           0.255  
> 2026 02 15 23 36 07.6688020  0  7                     
G02  23504174.110       88879.810        1319.907           0.255  
G03  23989863.935      298623.581        4504.708           0.255  
G04  20974303.818      213153.992        3231.235           0.255  
G05  20606764.870      101141.145        1543.285           0.255  
G06  23985596.602      317951.650        4912.886           0.255  
G07  22041456.480       82091.588        1274.122           0.255  
G09  24175399.441       30364.809         468.782           0.255  
> 2026 02 15 23 36 07.7688020  0  7                     
G02  23504144.635       89011.813        1322.036           0.255  
G03  23989752.519      299074.285        4507.686           0.255  
G04  20974223.481      213477.222        3234.535           0.255  
G05  20606726.436      101295.366        1544.621           0.255  
G06  23985470.250      318442.945        4914.128           0.255  
G07  22041418.053       82219.031        1275.730           0.255  
G09  24175383.709       30411.781         469.862           0.255  
> 2026 02 15 23 36 07.8688020  0  7                     
G02  23504112.187       89143.797        1317.193           0.255  
G03  23989633.487      299524.985        4505.052           0.255  
G04  20974137.365      213800.425        3228.025           0.255  
G05  20606688.238      101449.589        1539.923           0.255  
G06  23985349.893      318934.222        4909.962           0.255  
G07  22041384.242       82346.503        1272.585           0.255  
G09  24175364.516       30458.741         467.789           0.255  
> 2026 02 15 23 36 07.9688020  0  7                     
G02  23504081.244       89275.697        1318.106           0.255  
G03  23989511.703      299975.552        4508.256           0.255  
G04  20974051.345      214123.530        3230.667           0.255  
G05  20606650.419      101603.691        1540.338           0.255  
G06  23985230.421      319425.415        4911.293           0.255  
G07  22041351.000       82473.809        1272.064           0.255  
G09  24175348.812       30505.557         467.686           0.255  
> 2026 02 15 23 36 08.0688020  0  7                     
G02  23504046.166       89407.851        1323.263           0.255  
G03  23989396.193      300426.397        4510.063           0.255  
G04  20973966.275      214446.924        3235.437           0.255  
G05  20606611.997      101758.098        1544.532           0.255  
G06  23985098.702      319916.890        4915.759           0.255  
G07  22041324.416       82601.439        1275.616           0.255  
G09  24175340.504       30552.686         472.290           0.255  
> 2026 02 15 23 36 08.1688020  0  7                     
G02  23504009.089       89540.295        1326.265           0.255  
G03  23989284.931      300877.539        4509.755           0.255  
G04  20973886.987      214770.562        3236.153           0.255  
G05  20606572.115      101912.788        1546.798           0.255  
G06  23984972.045      320408.640        4916.094           0.255  
G07  22041295.724       82729.390        1280.253           0.255  
G09  24175333.376       30600.115         474.974           0.255  
> 2026 02 15 23 36 08.2688020  0  7                     
G02  23503973.047       89672.832        1327.899           0.255  
G03  23989168.782      301328.765        4512.081           0.255  
G04  20973804.638      215094.330        3241.899           0.255  
G05  20606529.830      102067.557        1551.898           0.255  
G06  23984850.133      320900.507        4921.870           0.255  
G07  22041262.461       82857.391        1283.584           0.255  
G09  24175321.516       30647.629         478.458           0.255  
> 2026 02 15 23 36 08.3688020  0  7                     
G02  23503941.562       89805.702        1328.522           0.255  
G03  23989051.083      301780.324        4511.419           0.255  
G04  20973726.937      215418.393        3236.082           0.255  
G05  20606489.394      102222.640        1548.451           0.255  
G06  23984719.339      321392.671        4919.331           0.255  
G07  22041223.897       82985.681        1281.322           0.255  
G09  24175309.258       30695.416         475.132           0.255  
> 2026 02 15 23 36 08.4688020  0  7                     
G02  23503908.940       89937.381        1308.742           0.255  
G03  23988942.822      302230.730        4492.952           0.255  
G04  20973641.349      215741.310        3219.264           0.255  
G05  20606449.273      102376.566        1529.712           0.255  
G06  23984590.969      321883.684        4900.922           0.255  
G07  22041191.137       83112.829        1260.452           0.255  
G09  24175304.426       30742.042         455.250           0.255  
> 2026 02 15 23 36 08.5688020  0  7                     
G02  23503878.703       90068.181        1311.299           0.255  
G03  23988828.474      302680.237        4495.853           0.255  
G04  20973557.714      216063.338        3224.134           0.255  
G05  20606411.331      102529.606        1533.526           0.255  
G06  23984473.406      322373.792        4905.074           0.255  
G07  22041158.877       83239.117        1264.266           0.255  
G09  24175290.105       30787.822         458.882           0.255  
> 2026 02 15 23 36 08.6688020  0  7                     
G02  23503847.022       90199.779        1314.378           0.255  
G03  23988710.769      303130.526        4499.086           0.255  
G04  20973468.590      216386.150        3226.735           0.255  
G05  20606374.324      102683.436        1536.784           0.255  
G06  23984348.396      322864.711        4906.675           0.255  
G07  22041129.074       83366.188        1267.694           0.255  
G09  24175275.937       30834.395         463.419           0.255  
> 2026 02 15 23 36 08.7688020  0  7                     
G02  23503806.096       90330.998        1314.412           0.255  
G03  23988592.901      303580.457        4499.181           0.255  
G04  20973387.005      216708.582        3223.320           0.255  
G05  20606332.546      102836.896        1535.297           0.255  
G06  23984219.210      323355.268        4906.077           0.255  
G07  22041098.380       83492.877        1267.248           0.255  
G09  24175262.655       30880.573         462.005           0.255  
> 2026 02 15 23 36 08.8688020  0  7                     
G02  23503768.961       90461.299        1285.756           0.255  
G03  23988483.052      304030.260        4493.891           0.255  
G04  20973309.274      217030.882        3221.017           0.255  
G05  20606290.708      102990.235        1533.018           0.255  
G06  23984098.461      323845.704        4904.744           0.255  
G07  22041067.854       83619.450        1263.267           0.255  
G09  24175252.293       30926.624         458.020           0.255  
> 2026 02 15 23 36 08.9688020  0  7                     
G02  23503739.812       90592.869        1306.791           0.255  
G03  23988364.444      304479.800        4496.946           0.255  
G04  20973232.616      217352.914        3218.921           0.255  
G05  20606249.962      103143.271        1529.695           0.255  
G06  23983973.324      324335.853        4902.462           0.255  
G07  22041032.730       83745.722        1261.825           0.255  
G09  24175236.922       30972.382         457.107           0.255  
> 2026 02 15 23 36 09.0688020  0  7                     
G02  23503708.842       90724.012        1315.906           0.255  
G03  23988246.861      304929.622        4499.860           0.255  
G04  20973150.971      217675.261        3228.420           0.255  
G05  20606211.489      103296.641        1538.453           0.255  
G06  23983841.214      324826.318        4909.366           0.255  
G07  22041001.154       83872.345        1270.212           0.255  
G09  24175220.040       31018.433         461.683           0.255  
> 2026 02 15 23 36 09.1688020  0  7                     
G02  23503673.613       90856.254        1325.258           0.255  
G03  23988132.276      305380.588        4507.721           0.255  
G04  20973066.328      217998.706        3234.019           0.255  
G05  20606174.818      103451.129        1544.194           0.255  
G06  23983717.491      325317.903        4915.565           0.255  
G07  22040969.423       84000.085        1277.055           0.255  
G09  24175202.530       31065.691         470.881           0.255  
> 2026 02 15 23 36 09.2688020  0  7                     
G02  23503640.335       90987.887        1315.109           0.255  
G03  23988024.784      305830.981        4502.420           0.255  
G04  20972978.609      218321.579        3227.160           0.255  
G05  20606137.400      103605.010        1538.197           0.255  
G06  23983599.294      325808.900        4908.554           0.255  
G07  22040936.326       84127.226        1271.164           0.255  
G09  24175197.015       31112.311         465.134           0.255  
> 2026 02 15 23 36 09.3688020  0  7                     
G02  23503607.959       91119.752        1321.531           0.255  
G03  23987909.282      306281.557        4507.768           0.255  
G04  20972893.225      218644.654        3234.259           0.255  
G05  20606098.375      103759.115        1543.835           0.255  
G06  23983468.002      326300.139        4916.984           0.255  
G07  22040904.899       84254.561        1275.752           0.255  
G09  24175191.278       31159.115         472.592           0.255  
> 2026 02 15 23 36 09.4688020  0  7                     
G02  23503570.689       91251.616        1317.768           0.255  
G03  23987790.672      306732.165        4506.809           0.255  
G04  20972809.734      218967.750        3231.028           0.255  
G05  20606056.598      103913.223        1539.899           0.255  
G06  23983340.363      326791.349        4911.936           0.255  
G07  22040875.458       84381.935        1272.918           0.255  
G09  24175180.794       31205.946         465.166           0.255  
> 2026 02 15 23 36 09.5688020  0  7                     
G02  23503534.278       91383.784        1319.946           0.255  
G03  23987677.756      307183.050        4506.998           0.255  
G04  20972735.417      219291.120        3232.849           0.255  
G05  20606014.480      104067.630        1541.914           0.255  
G06  23983218.550      327282.884        4916.449           0.255  
G07  22040838.531       84509.561        1273.864           0.255  
G09  24175166.357       31253.078         473.508           0.255  
> 2026 02 15 23 36 09.6688020  0  7                     
G02  23503503.165       91515.702        1317.731           0.255  
G03  23987565.154      307633.678        4503.030           0.255  
G04  20972655.694      219614.262        3231.554           0.255  
G05  20605971.495      104221.804        1541.194           0.255  
G06  23983090.419      327774.168        4913.775           0.255  
G07  22040804.008       84636.974        1272.601           0.255  
G09  24175158.570       31299.948         472.166           0.255  
> 2026 02 15 23 36 09.7688020  0  7                     
G02  23503473.145       91647.528        1321.283           0.255  
G03  23987444.066      308084.297        4508.905           0.255  
G04  20972571.579      219937.310        3232.090           0.255  
G05  20605931.583      104375.882        1542.043           0.255  
G06  23982964.023      328265.349        4912.321           0.255  
G07  22040772.240       84764.308        1274.641           0.255  
G09  24175148.567       31346.742         470.747           0.255  
> 2026 02 15 23 36 09.8688020  0  7                     
G02  23503436.301       91779.207        1311.799           0.255  
G03  23987327.924      308534.700        4499.471           0.255  
G04  20972484.525      220260.215        3224.263           0.255  
G05  20605894.328      104529.819        1535.764           0.255  
G06  23982841.086      328756.410        4906.171           0.255  
G07  22040741.018       84891.520        1269.533           0.255  
G09  24175133.011       31393.391         461.677           0.255  
> 2026 02 15 23 36 09.9688020  0  7                     
G02  23503401.029       91910.485        1315.538           0.255  
G03  23987214.636      308984.734        4505.069           0.255  
G04  20972401.506      220582.735        3229.726           0.255  
G05  20605857.749      104683.371        1541.323           0.255  
G06  23982717.176      329247.086        4911.312           0.255  
G07  22040710.372       85018.327        1275.054           0.255  
G09  24175117.311       31439.655         468.699           0.255  
> 2026 02 15 23 36 10.0688020  0  7                     
G02  23503363.585       92042.979        1245.273           0.255  
G03  23987102.431      309436.054        4515.041           0.255  
G04  20972318.703      220906.530        3239.708           0.255  
G05  20605819.246      104838.185        1551.511           0.255  
G06  23982592.276      329739.038        4920.880           0.255  
G07  22040678.868       85146.414        1284.532           0.255  
G09  24175104.148       31487.181         476.625           0.255  
> 2026 02 15 23 36 10.1688020  0  7                     
G02  23503331.580       92175.973        1325.702           0.255  
G03  23986984.633      309887.696        4516.137           0.255  
G04  20972237.476      221230.663        3240.355           0.255  
G05  20605780.213      104993.335        1550.947           0.255  
G06  23982465.484      330231.323        4921.611           0.255  
G07  22040643.627       85274.812        1284.250           0.255  
G09  24175091.503       31535.056         475.228           0.255  
> 2026 02 15 23 36 10.2688020  0  7                     
G02  23503297.143       92308.487        1319.219           0.255  
G03  23986869.055      310338.966        4507.223           0.255  
G04  20972156.033      221554.409        3231.245           0.255  
G05  20605738.184      105148.106        1540.266           0.255  
G06  23982341.676      330723.218        4911.256           0.255  
G07  22040606.755       85402.833        1274.114           0.255  
G09  24175076.134       31582.529         468.398           0.255  
> 2026 02 15 23 36 10.3688020  0  7                     
G02  23503267.164       92440.027        1317.589           0.255  
G03  23986759.070      310789.284        4508.396           0.255  
G04  20972074.813      221877.152        3228.330           0.255  
G05  20605698.652      105301.914        1540.098           0.255  
G06  23982213.804      331214.146        4911.125           0.255  
G07  22040578.850       85529.885        1272.274           0.255  
G09  24175060.219       31629.048         468.763           0.255  
> 2026 02 15 23 36 10.4688020  0  7                     
G02  23503228.716       92571.736        1318.562           0.255  
G03  23986646.000      311239.750        4505.841           0.255  
G04  20971991.658      222200.105        3228.582           0.255  
G05  20605657.384      105455.880        1539.483           0.255  
G06  23982086.205      331705.245        4910.901           0.255  
G07  22040547.077       85657.136        1272.272           0.255  
G09  24175050.588       31675.737         467.401           0.255  
> 2026 02 15 23 36 10.5688020  0  7                     
G02  23503192.677       92703.684        1319.435           0.255  
G03  23986527.389      311690.464        4509.316           0.255  
G04  20971905.621      222523.277        3233.417           0.255  
G05  20605619.069      105610.075        1542.927           0.255  
G06  23981963.245      332196.568        4912.984           0.255  
G07  22040513.206       85784.581        1274.616           0.255  
G09  24175044.103       31722.632         471.648           0.255  
> 2026 02 15 23 36 10.6688020  0  7                     
G02  23503160.517       92835.453        1317.381           0.255  
G03  23986408.141      312140.975        4503.883           0.255  
G04  20971820.645      222846.256        3228.722           0.255  
G05  20605581.829      105764.087        1539.192           0.255  
G06  23981839.582      332687.741        4910.814           0.255  
G07  22040480.375       85911.876        1272.776           0.255  
G09  24175036.687       31769.353         463.302           0.255  
> 2026 02 15 23 36 10.7688020  0  7                     
G02  23503127.779       92967.141        1318.468           0.255  
G03  23986292.224      312591.444        4507.241           0.255  
G04  20971739.780      223168.911        3233.997           0.255  
G05  20605542.476      105918.052        1542.088           0.255  
G06  23981714.619      333178.845        4912.558           0.255  
G07  22040447.423       86038.936        1272.511           0.255  
G09  24175018.269       31816.041         468.911           0.255  
> 2026 02 15 23 36 10.8688020  0  7                     
G02  23503091.865       93099.687        1329.175           0.255  
G03  23986175.145      313042.752        4514.706           0.255  
G04  20971659.759      223492.950        3240.329           0.255  
G05  20605501.954      106072.853        1549.338           0.255  
G06  23981588.938      333670.807        4921.609           0.255  
G07  22040412.822       86167.172        1282.326           0.255  
G09  24175007.248       31863.541         477.364           0.255  
> 2026 02 15 23 36 10.9688020  0  7                     
G02  23503057.612       93231.619        1317.853           0.255  
G03  23986061.434      313493.449        4507.021           0.255  
G04  20971577.268      223816.117        3230.698           0.255  
G05  20605460.799      106227.061        1541.764           0.255  
G06  23981461.494      334162.173        4913.418           0.255  
G07  22040379.359       86294.641        1273.907           0.255  
G09  24174996.841       31910.461         468.339           0.255  
> 2026 02 15 23 36 11.0688020  0  7                     
G02  23503025.691       93364.092        1318.651           0.255  
G03  23985945.286      313944.713        4508.639           0.255  
G04  20971495.285      224139.822        3233.326           0.255  
G05  20605421.588      106381.808        1544.361           0.255  
G06  23981333.342      334654.073        4916.852           0.255  
G07  22040346.270       86422.675        1277.069           0.255  
G09  24174979.793       31957.894         469.598           0.255  
> 2026 02 15 23 36 11.1688020  0  7                     
G02  23502990.923       93496.004        1319.568           0.255  
G03  23985834.883      314395.394        4509.680           0.255  
G04  20971412.643      224462.946        3232.231           0.255  
G05  20605384.507      106535.974        1542.723           0.255  
G06  23981208.395      335145.384        4913.122           0.255  
G07  22040311.634       86550.103        1274.429           0.255  
G09  24174968.911       32004.770         469.678           0.255  
> 2026 02 15 23 36 11.2688020  0  7                     
G02  23502957.767       93627.699        1314.536           0.255  
G03  23985725.839      314845.825        4501.687           0.255  
G04  20971328.706      224785.865        3226.714           0.255  
G05  20605346.199      106689.925        1538.737           0.255  
G06  23981084.525      335636.516        4908.954           0.255  
G07  22040280.962       86677.333        1269.431           0.255  
G09  24174959.488       32051.416         465.348           0.255  
> 2026 02 15 23 36 11.3688020  0  7                     
G02  23502919.321       93759.310        1317.843           0.255  
G03  23985606.517      315296.248        4506.588           0.255  
G04  20971242.650      225108.727        3231.074           0.255  
G05  20605308.988      106843.816        1541.469           0.255  
G06  23980962.276      336127.559        4912.188           0.255  
G07  22040247.596       86804.504        1272.566           0.255  
G09  24174946.044       32098.034         470.310           0.255  
> 2026 02 15 23 36 11.4688020  0  7                     
G02  23502890.922       93891.481        1325.219           0.255  
G03  23985485.746      315747.211        4513.256           0.255  
G04  20971158.512      225432.116        3238.052           0.255  
G05  20605271.345      106998.235        1548.102           0.255  
G06  23980836.073      336619.154        4919.831           0.255  
G07  22040213.023       86932.186        1280.139           0.255  
G09  24174941.368       32145.153         478.045           0.255  
> 2026 02 15 23 36 11.5688020  0  7                     
G02  23502855.015       94024.190        1324.492           0.255  
G03  23985370.390      316198.742        4516.531           0.255  
G04  20971078.370      225756.052        3238.451           0.255  
G05  20605229.802      107153.224        1549.036           0.255  
G06  23980709.587      337111.308        4923.288           0.255  
G07  22040180.351       87060.461        1282.000           0.255  
G09  24174923.239       32192.829         473.875           0.255  
> 2026 02 15 23 36 11.6688020  0  7                     
G02  23502820.286       94156.797        1324.621           0.255  
G03  23985258.739      316650.158        4518.700           0.255  
G04  20970998.691      226079.391        3218.836           0.255  
G05  20605184.918      107308.089        1547.593           0.255  
G06  23980585.115      337603.370        4921.999           0.255  
G07  22040149.206       87188.631        1282.226           0.255  
G09  24174907.441       32240.430         474.248           0.255  
> 2026 02 15 23 36 11.7688020  0  7                     
G02  23502782.943       94289.306        1321.884           0.255  
G03  23985140.575      317101.375        4510.667           0.255  
G04  20970917.137      226403.612        3236.175           0.255  
G05  20605144.999      107462.878        1546.130           0.255  
G06  23980455.967      338095.297        4917.342           0.255  
G07  22040114.600       87316.676        1277.472           0.255  
G09  24174900.277       32287.894         472.020           0.255  
> 2026 02 15 23 36 11.8688020  0  7                     
G02  23502752.145       94421.382        1319.642           0.255  
G03  23985024.393      317552.222        4502.786           0.255  
G04  20970836.273      226726.898        3231.062           0.255  
G05  20605106.619      107617.206        1541.646           0.255  
G06  23980327.489      338586.766        4914.119           0.255  
G07  22040078.910       87444.296        1273.346           0.255  
G09  24174888.323       32334.906         466.007           0.255  
> 2026 02 15 23 36 11.9688020  0  7                     
G02  23502723.479       94553.005        1321.601           0.255  
G03  23984913.057      318002.643        4506.485           0.255  
G04  20970750.869      227049.734        3230.637           0.255  
G05  20605068.577      107771.090        1542.051           0.255  
G06  23980206.330      339077.835        4913.428           0.255  
G07  22040049.386       87571.984        1320.716           0.255  
G09  24174869.772       32381.515         470.695           0.255  
> 2026 02 15 23 36 12.0688020  0  7                     
G02  23502689.888       94685.426        1325.829           0.255  
G03  23984802.857      318453.895        4512.595           0.255  
G04  20970666.059      227373.424        3238.623           0.255  
G05  20605031.126      107925.797        1548.387           0.255  
G06  23980084.549      339569.725        4919.761           0.255  
G07  22040017.021       87699.464        1278.912           0.255  
G09  24174855.228       32428.904         473.306           0.255  
> 2026 02 15 23 36 12.1688020  0  7                     
G02  23502657.557       94817.915        1327.040           0.255  
G03  23984685.816      318905.168        4512.323           0.255  
G04  20970578.458      227697.116        3238.371           0.255  
G05  20604994.659      108080.539        1548.587           0.255  
G06  23979955.863      340061.655        4919.599           0.255  
G07  22039983.676       87827.514        1282.928           0.255  
G09  24174839.712       32476.369         475.236           0.255  
> 2026 02 15 23 36 12.2688020  0  7                     
G02  23502619.417       94950.119        1318.227           0.255  
G03  23984567.223      319356.195        4507.503           0.255  
G04  20970498.467      228020.559        3230.842           0.255  
G05  20604953.625      108235.030        1540.703           0.255  
G06  23979827.853      340553.323        4912.156           0.255  
G07  22039952.662       87955.294        1273.681           0.255  
G09  24174830.295       32523.556         468.445           0.255  
> 2026 02 15 23 36 12.3688020  0  7                     
G02  23502582.504       95081.846        1319.462           0.255  
G03  23984453.738      319806.736        4508.957           0.255  
G04  20970420.115      228343.512        3230.886           0.255  
G05  20604910.410      108389.030        1541.896           0.255  
G06  23979707.336      341044.531        4913.761           0.255  
G07  22039917.111       88082.576        1274.824           0.255  
G09  24174823.133       32570.274         470.897           0.255  
> 2026 02 15 23 36 12.4688020  0  7                     
G02  23502549.808       95213.534        1322.927           0.255  
G03  23984341.786      320257.198        4511.217           0.255  
G04  20970342.641      228666.420        3234.163           0.255  
G05  20604870.239      108542.984        1545.590           0.255  
G06  23979576.966      341535.657        4916.604           0.255  
G07  22039880.030       88210.120        1309.360           0.255  
G09  24174810.156       32616.888         471.630           0.255  
> 2026 02 15 23 36 12.5688020  0  7                     
G02  23502517.654       95345.850        1322.475           0.255  
G03  23984218.896      320708.355        4511.935           0.255  
G04  20970257.870      228989.980        3235.910           0.255  
G05  20604832.120      108697.601        1546.890           0.255  
G06  23979449.766      342027.430        4917.174           0.255  
G07  22039850.750       88337.738        1279.384           0.255  
G09  24174797.501       32664.212         472.365           0.255  
> 2026 02 15 23 36 12.6688020  0  7                     
G02  23502486.229       95478.005        1320.838           0.255  
G03  23984100.117      321159.335        4509.976           0.255  
G04  20970170.952      229313.364        3232.398           0.255  
G05  20604794.151      108852.013        1540.785           0.255  
G06  23979329.545      342519.066        4915.106           0.255  
G07  22039821.615       88465.457        1276.917           0.255  
G09  24174789.288       32711.336         468.359           0.255  
> 2026 02 15 23 36 12.7688020  0  7                     
G02  23502452.614       95609.868        1318.039           0.255  
G03  23983990.963      321610.024        4505.240           0.255  
G04  20970084.737      229636.456        3229.534           0.255  
G05  20604752.951      109006.160        1539.988           0.255  
G06  23979204.817      343010.408        4911.597           0.255  
G07  22039786.841       88592.881        1271.959           0.255  
G09  24174779.834       32758.191         468.272           0.255  
> 2026 02 15 23 36 12.8688020  0  7                     
G02  23502417.832       95741.204        1268.220           0.255  
G03  23983880.112      322060.507        4502.808           0.255  
G04  20970001.072      229959.362        3227.981           0.255  
G05  20604712.781      109160.108        1537.938           0.255  
G06  23979073.077      343501.558        4910.713           0.255  
G07  22039756.415       88720.170        1271.809           0.255  
G09  24174763.053       32804.807         466.751           0.255  
> 2026 02 15 23 36 12.9688020  0  7                     
G02  23502382.946       95872.844        1311.993           0.255  
G03  23983759.440      322510.609        4497.728           0.255  
G04  20969923.391      230281.896        3224.102           0.255  
G05  20604672.338      109313.697        1534.037           0.255  
G06  23978952.569      343992.324        4904.334           0.255  
G07  22039722.908       88847.039        1267.519           0.255  
G09  24174752.513       32851.112         464.537           0.255  
> 2026 02 15 23 36 13.0688020  0  7                     
G02  23502347.937       96004.184        1316.346           0.255  
G03  23983646.655      322960.809        4505.403           0.255  
G04  20969844.954      230604.470        3229.477           0.255  
G05  20604631.329      109467.329        1539.152           0.255  
G06  23978827.112      344483.147        4908.675           0.255  
G07  22039688.628       88973.933        1269.348           0.255  
G09  24174742.793       32897.398         465.635           0.255  
> 2026 02 15 23 36 13.1688020  0  7                     
G02  23502316.317       96136.070        1319.796           0.255  
G03  23983536.555      323411.528        4508.931           0.255  
G04  20969764.709      230927.594        3233.141           0.255  
G05  20604592.858      109621.501        1542.453           0.255  
G06  23978697.035      344974.539        4914.568           0.255  
G07  22039656.116       89100.740        1315.325           0.255  
G09  24174727.621       32944.274         468.617           0.255  
> 2026 02 15 23 36 13.2688020  0  7                     
G02  23502285.965       96267.850        1268.003           0.255  
G03  23983421.068      323862.195        4501.751           0.255  
G04  20969679.329      231250.654        3224.949           0.255  
G05  20604555.125      109775.622        1535.876           0.255  
G06  23978574.387      345465.861        4907.300           0.255  
G07  22039626.713       89228.851        1269.449           0.255  
G09  24174710.807       32991.106         464.381           0.255  
> 2026 02 15 23 36 13.3688020  0  7                     
G02  23502255.991       96399.752        1319.379           0.255  
G03  23983296.969      324312.870        4510.697           0.255  
G04  20969590.062      231573.735        3232.233           0.255  
G05  20604517.376      109929.747        1543.575           0.255  
G06  23978455.317      345957.210        4917.100           0.255  
G07  22039594.908       89356.291        1276.017           0.255  
G09  24174693.418       33037.892         468.582           0.255  
> 2026 02 15 23 36 13.4688020  0  7                     
G02  23502221.006       96531.817        1322.049           0.255  
G03  23983182.922      324763.772        4510.709           0.255  
G04  20969506.483      231897.023        3234.379           0.255  
G05  20604478.476      110084.087        1544.651           0.255  
G06  23978326.933      346448.760        4917.980           0.255  
G07  22039564.890       89483.926        1277.481           0.255  
G09  24174681.977       33084.934         471.948           0.255  
> 2026 02 15 23 36 13.5688020  0  7                     
G02  23502181.286       96664.438        1347.288           0.255  
G03  23983072.564      325215.018        4512.655           0.255  
G04  20969425.429      232220.684        3237.029           0.255  
G05  20604436.663      110238.806        1546.396           0.255  
G06  23978197.866      346940.666        4918.163           0.255  
G07  22039530.825       89611.932        1280.259           0.255  
G09  24174677.888       33132.343         475.166           0.255  
> 2026 02 15 23 36 13.6688020  0  7                     
G02  23502144.773       96796.279        1317.362           0.255  
G03  23982954.096      325665.935        4505.438           0.255  
G04  20969350.065      232543.844        3197.620           0.255  
G05  20604392.388      110393.147        1542.533           0.255  
G06  23978077.857      347432.208        4913.959           0.255  
G07  22039494.944       89739.586        1272.964           0.255  
G09  24174665.724       33179.366         467.563           0.255  
> 2026 02 15 23 36 13.7688020  0  7                     
G02  23502115.048       96927.945        1316.114           0.255  
G03  23982836.592      326116.402        4503.697           0.255  
G04  20969270.028      232866.867        3228.909           0.255  
G05  20604351.133      110547.090        1538.902           0.255  
G06  23977950.376      347923.347        4911.549           0.255  
G07  22039462.503       89866.874        1274.436           0.255  
G09  24174652.929       33225.994         466.659           0.255  
> 2026 02 15 23 36 13.8688020  0  7                     
G02  23502079.956       97059.526        1308.756           0.255  
G03  23982726.246      326566.859        4500.132           0.255  
G04  20969187.222      233189.675        3221.792           0.255  
G05  20604309.628      110700.949        1532.256           0.255  
G06  23977818.654      348414.451        4905.081           0.255  
G07  22039432.410       89994.057        1266.922           0.255  
G09  24174642.578       33272.551         459.735           0.255  
> 2026 02 15 23 36 13.9688020  0  7                     
G02  23502050.489       97191.061        1319.088           0.255  
G03  23982619.468      327017.244        4509.034           0.255  
G04  20969097.969      233512.439        3230.148           0.255  
G05  20604273.194      110854.763        1539.302           0.255  
G06  23977700.714      348905.496        4914.059           0.255  
G07  22039402.802       90121.184        1275.255           0.255  
G09  24174633.415       33319.046         468.418           0.255  
> 2026 02 15 23 36 14.0688020  0  7                     
G02  23502016.580       97323.391        1325.079           0.255  
G03  23982500.370      327468.411        4510.683           0.255  
G04  20969010.173      233836.014        3237.158           0.255  
G05  20604236.793      111009.394        1547.815           0.255  
G06  23977576.789      349397.364        4919.694           0.255  
G07  22039368.671       90249.117        1281.058           0.255  
G09  24174616.732       33366.372         474.302           0.255  
> 2026 02 15 23 36 14.1688020  0  7                     
G02  23501980.086       97455.885        1325.940           0.255  
G03  23982383.341      327919.730        4509.212           0.255  
G04  20968928.652      234159.727        3235.468           0.255  
G05  20604200.152      111164.162        1545.630           0.255  
G06  23977447.700      349889.371        4918.746           0.255  
G07  22039333.500       90377.200        1278.574           0.255  
G09  24174606.363       33413.816         471.602           0.255  
> 2026 02 15 23 36 14.2688020  0  7                     
G02  23501939.379       97588.156        1323.839           0.255  
G03  23982267.693      328370.892        4512.795           0.255  
G04  20968851.585      234483.236        3235.009           0.255  
G05  20604159.069      111318.740        1545.913           0.255  
G06  23977322.567      350381.189        4918.784           0.255  
G07  22039297.453       90505.080        1277.213           0.255  
G09  24174596.807       33461.066         472.339           0.255  
> 2026 02 15 23 36 14.3688020  0  7                     
G02  23501907.040       97720.145        1317.568           0.255  
G03  23982150.735      328821.689        4501.714           0.255  
G04  20968773.039      234806.451        3227.979           0.255  
G05  20604115.655      111473.014        1538.175           0.255  
G06  23977198.312      350872.685        4911.879           0.255  
G07  22039266.786       90632.679        1270.823           0.255  
G09  24174581.258       33508.042         464.946           0.255  
> 2026 02 15 23 36 14.4688020  0  7                     
G02  23501877.179       97851.663        1315.404           0.255  
G03  23982030.986      329272.111        4504.453           0.255  
G04  20968689.364      235129.214        3228.770           0.255  
G05  20604075.740      111626.856        1540.341           0.255  
G06  23977068.427      351363.766        4911.327           0.255  
G07  22039238.361       90759.831        1269.932           0.255  
G09  24174567.144       33554.565         466.796           0.255  
> 2026 02 15 23 36 14.5688020  0  7                     
G02  23501846.479       97983.179        1315.898           0.255  
G03  23981917.235      329722.543        4509.022           0.255  
G04  20968606.142      235451.982        3229.129           0.255  
G05  20604037.856      111780.662        1538.875           0.255  
G06  23976941.886      351854.830        4910.240           0.255  
G07  22039206.921       90886.956        1271.506           0.255  
G09  24174552.555       33601.064         467.103           0.255  
> 2026 02 15 23 36 14.6688020  0  7                     
G02  23501814.192       98114.953        1313.518           0.255  
G03  23981806.253      330173.159        4503.354           0.255  
G04  20968519.308      235774.983        3226.984           0.255  
G05  20603998.318      111934.715        1536.151           0.255  
G06  23976820.704      352346.147        4909.001           0.255  
G07  22039171.722       91014.356        1270.689           0.255  
G09  24174538.122       33647.769         460.534           0.255  
> 2026 02 15 23 36 14.7688020  0  7                     
G02  23501778.244       98245.916        1261.984           0.255  
G03  23981694.593      330622.845        4494.218           0.255  
G04  20968435.376      236097.029        3218.532           0.255  
G05  20603959.990      112087.820        1526.729           0.255  
G06  23976696.836      352836.509        4899.862           0.255  
G07  22039139.121       91140.971        1267.984           0.255  
G09  24174531.626       33693.577         453.935           0.255  
> 2026 02 15 23 36 14.8688020  0  7                     
G02  23501740.354       98376.523        1308.733           0.255  
G03  23981578.681      331072.487        4499.376           0.255  
G04  20968352.836      236419.030        3223.725           0.255  
G05  20603920.969      112240.880        1533.266           0.255  
G06  23976567.360      353326.805        4906.685           0.255  
G07  22039105.734       91267.187        1266.267           0.255  
G09  24174522.917       33739.339         460.176           0.255  
> 2026 02 15 23 36 14.9688020  0  7                     
G02  23501704.817       98507.820        1315.128           0.255  
G03  23981464.181      331522.628        4505.155           0.255  
G04  20968273.456      236741.545        3227.094           0.255  
G05  20603881.717      112394.469        1538.098           0.255  
G06  23976446.416      353817.648        4910.549           0.255  
G07  22039071.119       91394.107        1270.990           0.255  
G09  24174508.044       33785.607         466.610           0.255  
> 2026 02 15 23 36 15.0688020  0  7                     
G02  23501676.084       98639.530        1318.891           0.255  
G03  23981348.487      331973.212        4504.759           0.255  
G04  20968193.043      237064.499        3230.759           0.255  
G05  20603841.231      112548.507        1542.212           0.255  
G06  23976318.362      354308.910        4913.016           0.255  
G07  22039039.971       91521.471        1275.854           0.255  
G09  24174495.634       33832.294         470.197           0.255  
> 2026 02 15 23 36 15.1688020  0  7                     
G02  23501643.952       98771.526        1323.274           0.255  
G03  23981230.845      332424.127        4511.891           0.255  
G04  20968112.308      237387.714        3232.135           0.255  
G05  20603801.220      112702.769        1543.208           0.255  
G06  23976188.032      354800.464        4915.654           0.255  
G07  22039011.454       91649.097        1278.475           0.255  
G09  24174486.925       33879.250         472.127           0.255  
> 2026 02 15 23 36 15.2688020  0  7                     
G02  23501606.750       98903.171        1314.385           0.255  
G03  23981114.639      332874.681        4505.615           0.255  
G04  20968026.895      237710.633        3227.773           0.255  
G05  20603766.359      112856.759        1538.411           0.255  
G06  23976064.182      355291.723        4912.709           0.255  
G07  22038976.027       91776.406        1320.380           0.255  
G09  24174468.055       33925.908         465.871           0.255  
> 2026 02 15 23 36 15.3688020  0  7                     
G02  23501570.226       99034.962        1320.256           0.255  
G03  23980996.824      333325.305        4503.768           0.255  
G04  20967945.184      238033.641        3231.433           0.255  
G05  20603727.007      113010.832        1541.530           0.255  
G06  23975940.998      355783.062        4914.563           0.255  
G07  22038939.350       91903.794        1274.567           0.255  
G09  24174458.515       33972.652         469.995           0.255  
> 2026 02 15 23 36 15.4688020  0  7                     
G02  23501537.153       99166.448        1311.162           0.255  
G03  23980885.324      333775.694        4499.354           0.255  
G04  20967860.487      238356.376        3224.338           0.255  
G05  20603687.681      113164.625        1533.923           0.255  
G06  23975818.175      356274.130        4909.337           0.255  
G07  22038904.373       92030.944        1268.396           0.255  
G09  24174445.905       34019.138         462.706           0.255  
> 2026 02 15 23 36 15.5688020  0  7                     
G02  23501502.267       99297.489        1310.176           0.255  
G03  23980771.857      334225.609        4499.166           0.255  
G04  20967777.435      238678.660        3225.276           0.255  
G05  20603650.109      113317.966        1533.919           0.255  
G06  23975693.088      356764.731        4908.841           0.255  
G07  22038872.102       92157.615        1266.214           0.255  
G09  24174431.976       34065.153         460.740           0.255  
> 2026 02 15 23 36 15.6688020  0  7                     
G02  23501465.833       99428.586        1292.013           0.255  
G03  23980658.135      334675.922        4502.953           0.255  
G04  20967693.136      239001.264        3226.239           0.255  
G05  20603609.616      113471.662        1537.012           0.255  
G06  23975565.064      357255.705        4911.034           0.255  
G07  22038842.255       92284.330        1294.382           0.255  
G09  24174423.322       34111.514         464.109           0.255  
> 2026 02 15 23 36 15.7688020  0  7                     
G02  23501435.049       99560.469        1314.414           0.255  
G03  23980541.242      335126.414        4501.758           0.255  
G04  20967613.524      239324.098        3226.875           0.255  
G05  20603564.801      113625.571        1537.679           0.255  
G06  23975440.810      357746.870        4910.319           0.255  
G07  22038814.260       92411.898        1272.215           0.255  
G09  24174412.509       34158.108         467.146           0.255  
> 2026 02 15 23 36 15.8688020  0  7                     
G02  23501399.850       99691.893        1309.325           0.255  
G03  23980429.702      335576.742        4498.999           0.255  
G04  20967534.434      239646.751        3221.032           0.255  
G05  20603525.351      113779.311        1532.552           0.255  
G06  23975314.680      358237.881        4903.682           0.255  
G07  22038781.550       92538.997        1266.754           0.255  
G09  24174399.896       34204.502         461.105           0.255  
> 2026 02 15 23 36 15.9688020  0  7                     
G02  23501366.906       99822.689        1314.825           0.255  
G03  23980316.002      336026.427        4502.531           0.255  
G04  20967453.711      239968.784        3227.177           0.255  
G05  20603488.997      113932.416        1538.372           0.255  
G06  23975187.899      358728.298        4911.117           0.255  
G07  22038741.594       92665.451        1272.261           0.255  
G09  24174392.314       34250.272         464.470           0.255  
> 2026 02 15 23 36 16.0688020  0  7                     
G02  23501331.087       99954.653        1319.486           0.255  
G03  23980194.699      336477.340        4511.182           0.255  
G04  20967366.819      240291.956        3245.130           0.255  
G05  20603454.361      114086.684        1543.858           0.255  
G06  23975064.929      359219.840        4916.844           0.255  
G07  22038704.281       92793.216        1308.692           0.255  
G09  24174381.574       34297.219         470.561           0.255  
> 2026 02 15 23 36 16.1688020  0  7                     
G02  23501296.942      100086.778        1322.526           0.255  
G03  23980076.902      336928.314        4504.569           0.255  
G04  20967283.393      240615.343        3235.194           0.255  
G05  20603415.771      114241.119        1545.950           0.255  
G06  23974943.489      359711.524        4917.212           0.255  
G07  22038675.013       92920.851        1277.755           0.255  
G09  24174362.927       34344.344         474.670           0.255  
> 2026 02 15 23 36 16.2688020  0  7                     
G02  23501262.501      100218.414        1311.364           0.255  
G03  23979962.602      337378.891        4499.290           0.255  
G04  20967198.600      240938.234        3225.564           0.255  
G05  20603376.498      114395.064        1534.696           0.255  
G06  23974814.948      360202.781        4909.017           0.255  
G07  22038644.132       93048.126        1268.204           0.255  
G09  24174346.489       34390.960         465.896           0.255  
> 2026 02 15 23 36 16.3688020  0  7                     
G02  23501232.495      100349.281        1307.893           0.255  
G03  23979852.919      337828.666        4494.570           0.255  
G04  20967117.011      241260.335        3220.740           0.255  
G05  20603334.049      114548.256        1532.484           0.255  
G06  23974687.703      360693.225        4902.584           0.255  
G07  22038614.494       93174.663        1262.473           0.255  
G09  24174333.717       34436.817         460.167           0.255  
> 2026 02 15 23 36 16.4688020  0  7                     
G02  23501197.230      100480.436        1312.704           0.255  
G03  23979735.440      338278.728        4502.791           0.255  
G04  20967037.737      241582.726        3227.512           0.255  
G05  20603292.556      114701.730        1537.833           0.255  
G06  23974566.044      361184.001        4909.749           0.255  
G07  22038579.649       93301.515        1272.798           0.255  
G09  24174319.491       34482.930         462.889           0.255  
> 2026 02 15 23 36 16.5688020  0  7                     
G02  23501158.873      100611.320        1301.601           0.255  
G03  23979619.014      338728.599        4493.072           0.255  
G04  20966958.028      241904.868        3216.329           0.255  
G05  20603254.430      114854.938        1525.000           0.255  
G06  23974434.883      361674.497        4897.372           0.255  
G07  22038542.766       93428.051        1257.323           0.255  
G09  24174309.472       34528.833         453.455           0.255  
> 2026 02 15 23 36 16.6688020  0  7                     
G02  23501128.204      100741.498        1306.016           0.255  
G03  23979509.925      339177.661        4497.039           0.255  
G04  20966877.108      242226.283        3219.948           0.255  
G05  20603216.137      115007.447        1532.416           0.255  
G06  23974310.262      362164.298        4905.506           0.255  
G07  22038511.068       93553.912        1265.821           0.255  
G09  24174299.315       34573.989         456.254           0.255  
> 2026 02 15 23 36 16.7688020  0  7                     
G02  23501094.876      100873.001        1313.117           0.255  
G03  23979396.629      339628.089        4504.982           0.255  
G04  20966789.998      242549.004        3226.577           0.255  
G05  20603177.546      115161.242        1537.247           0.255  
G06  23974193.516      362655.367        4912.029           0.255  
G07  22038477.458       93681.084        1269.897           0.255  
G09  24174292.876       34620.437         463.076           0.255  
> 2026 02 15 23 36 16.8688020  0  7                     
G02  23501062.031      101004.293        1312.959           0.255  
G03  23979275.910      340078.322        4502.370           0.255  
G04  20966700.950      242871.540        3224.499           0.255  
G05  20603141.470      115314.857        1536.091           0.255  
G06  23974070.797      363146.285        4908.426           0.255  
G07  22038442.817       93808.083        1270.140           0.255  
G09  24174286.817       34666.737         461.702           0.255  
> 2026 02 15 23 36 16.9688020  0  7                     
G02  23501029.194      101135.707        1317.901           0.255  
G03  23979158.532      340528.644        4505.482           0.255  
G04  20966616.507      243194.176        3228.558           0.255  
G05  20603101.832      115468.576        1541.647           0.255  
G06  23973934.144      363637.288        4914.012           0.255  
G07  22038417.477       93935.131        1274.933           0.255  
G09  24174275.880       34713.125         469.480           0.255  
> 2026 02 15 23 36 17.0688020  0  7                     
G02  23500993.064      101267.594        1317.663           0.255  
G03  23979050.136      340979.495        4506.819           0.255  
G04  20966543.044      243517.334        3230.763           0.255  
G05  20603057.931      115622.786        1541.190           0.255  
G06  23973814.450      364128.833        4914.105           0.255  
G07  22038388.375       94062.721        1274.119           0.255  
G09  24174259.660       34759.992         468.754           0.255  
> 2026 02 15 23 36 17.1688020  0  7                     
G02  23500960.888      101399.137        1319.442           0.255  
G03  23978932.835      341429.959        4507.167           0.255  
G04  20966465.078      243840.094        3230.584           0.255  
G05  20603016.134      115776.624        1542.038           0.255  
G06  23973691.489      364619.981        4912.921           0.255  
G07  22038352.295       94189.924        1274.922           0.255  
G09  24174250.328       34806.509         467.530           0.255  
> 2026 02 15 23 36 17.2688020  0  7                     
G02  23500927.751      101531.349        1324.958           0.255  
G03  23978811.212      341881.100        4513.096           0.255  
G04  20966381.477      244163.573        3237.164           0.255  
G05  20602976.601      115931.178        1546.580           0.255  
G06  23973558.388      365111.847        4919.642           0.255  
G07  22038319.025       94317.847        1279.953           0.255  
G09  24174236.671       34853.726         473.414           0.255  
> 2026 02 15 23 36 17.3688020  0  7                     
G02  23500897.143      101663.535        1323.068           0.255  
G03  23978700.207      342332.237        4512.042           0.255  
G04  20966297.558      244486.974        3233.086           0.255  
G05  20602936.883      116085.682        1545.073           0.255  
G06  23973434.487      365603.676        4919.245           0.255  
G07  22038286.282       94445.726        1278.648           0.255  
G09  24174219.420       34900.886         470.662           0.255  
> 2026 02 15 23 36 17.4688020  0  7                     
G02  23500863.236      101795.562        1321.065           0.255  
G03  23978585.168      342783.213        4509.988           0.255  
G04  20966213.917      244810.247        3231.368           0.255  
G05  20602897.688      116240.022        1542.052           0.255  
G06  23973310.687      366095.338        4915.594           0.255  
G07  22038254.458       94573.447        1278.390           0.255  
G09  24174204.400       34947.885         467.759           0.255  
> 2026 02 15 23 36 17.5688020  0  7                     
G02  23500829.767      101927.502        1321.822           0.255  
G03  23978470.819      343234.106        4511.602           0.255  
G04  20966128.794      245133.441        3232.788           0.255  
G05  20602859.575      116394.287        1543.112           0.255  
G06  23973184.377      366586.928        4916.137           0.255  
G07  22038224.405       94701.062        1274.567           0.255  
G09  24174192.211       34994.834         469.413           0.255  
> 2026 02 15 23 36 17.6688020  0  7                     
G02  23500795.938      102059.573        1317.863           0.255  
G03  23978353.418      343685.137        4509.639           0.255  
G04  20966044.056      245456.774        3231.373           0.255  
G05  20602819.016      116548.714        1543.204           0.255  
G06  23973057.585      367078.672        4915.403           0.255  
G07  22038193.779       94828.852        1273.874           0.255  
G09  24174178.600       35041.907         469.612           0.255  
> 2026 02 15 23 36 17.7688020  0  7                     
G02  23500760.743      102190.945        1313.184           0.255  
G03  23978242.881      344135.469        4504.887           0.255  
G04  20965966.136      245779.390        3225.686           0.255  
G05  20602776.892      116702.410        1536.533           0.255  
G06  23972932.750      367569.695        4908.674           0.255  
G07  22038158.513       94955.922        1268.856           0.255  
G09  24174167.434       35088.253         461.209           0.255  
> 2026 02 15 23 36 17.8688020  0  7                     
G02  23500725.473      102321.837        1305.521           0.255  
G03  23978129.187      344585.295        4493.910           0.255  
G04  20965886.972      246101.525        3216.900           0.255  
G05  20602737.231      116855.623        1527.798           0.255  
G06  23972807.784      368060.241        4901.030           0.255  
G07  22038123.248       95082.518        1260.297           0.255  
G09  24174156.200       35134.121         454.149           0.255  
> 2026 02 15 23 36 17.9688020  0  7                     
G02  23500695.678      102452.360        1305.972           0.255  
G03  23978011.022      345034.815        4494.674           0.255  
G04  20965802.946      246423.306        3219.434           0.255  
G05  20602699.381      117008.483        1528.655           0.255  
G06  23972680.955      368550.454        4902.510           0.255  
G07  22038092.384       95208.773        1262.868           0.255  
G09  24174147.596       35179.650         456.655           0.255  
> 2026 02 15 23 36 18.0688020  0  7                     
G02  23500665.180      102582.749        1284.348           0.255  
G03  23977892.064      345485.238        4512.783           0.255  
G04  20965716.257      246746.001        3235.502           0.255  
G05  20602661.720      117162.287        1545.725           0.255  
G06  23972557.890      369041.596        4920.792           0.255  
G07  22038061.014       95335.808        1239.287           0.255  
G09  24174137.758       35226.104         473.199           0.255  
> 2026 02 15 23 36 18.1688020  0  7                     
G02  23500629.846      102716.129        1322.541           0.255  
G03  23977782.437      345936.513        4511.575           0.255  
G04  20965631.541      247069.559        3235.048           0.255  
G05  20602624.428      117316.905        1543.317           0.255  
G06  23972435.253      369533.555        4919.162           0.255  
G07  22038028.230       95463.959        1277.888           0.255  
G09  24174126.867       35273.394         470.611           0.255  
> 2026 02 15 23 36 18.2688020  0  7                     
G02  23500593.197      102848.413        1323.678           0.255  
G03  23977670.494      346387.741        4512.363           0.255  
G04  20965552.964      247393.087        3236.592           0.255  
G05  20602584.078      117471.528        1546.860           0.255  
G06  23972306.156      370025.502        4920.495           0.255  
G07  22037998.651       95591.946        1280.699           0.255  
G09  24174113.672       35320.663         474.572           0.255  
> 2026 02 15 23 36 18.3688020  0  7                     
G02  23500558.313      102980.548        1320.043           0.255  
G03  23977552.680      346838.850        4507.388           0.255  
G04  20965469.755      247716.454        3230.867           0.255  
G05  20602543.003      117625.984        1542.558           0.255  
G06  23972181.089      370517.299        4915.436           0.255  
G07  22037964.879       95719.797        1275.481           0.255  
G09  24174098.097       35367.790         469.095           0.255  
> 2026 02 15 23 36 18.4688020  0  7                     
G02  23500526.094      103112.486        1323.449           0.255  
G03  23977437.572      347289.773        4513.842           0.255  
G04  20965389.714      248039.643        3235.376           0.255  
G05  20602501.529      117780.252        1544.833           0.255  
G06  23972057.846      371008.909        4919.060           0.255  
G07  22037931.376       95847.468        1280.168           0.255  
G09  24174090.386       35414.710         472.446           0.255  
> 2026 02 15 23 36 18.5688020  0  7                     
G02  23500492.235      103244.553        1321.169           0.255  
G03  23977324.521      347740.824        4511.680           0.255  
G04  20965308.084      248362.959        3233.315           0.255  
G05  20602459.674      117934.668        1544.771           0.255  
G06  23971926.846      371500.666        4916.543           0.255  
G07  22037897.329       95975.249        1278.580           0.255  
G09  24174075.707       35461.765         469.063           0.255  
> 2026 02 15 23 36 18.6688020  0  7                     
G02  23500463.071      103376.491        1319.350           0.255  
G03  23977208.269      348191.730        4512.514           0.255  
G04  20965227.271      248686.139        3233.493           0.255  
G05  20602420.505      118088.935        1544.242           0.255  
G06  23971800.134      371992.298        4917.535           0.255  
G07  22037867.365       96102.914        1277.114           0.255  
G09  24174055.884       35508.705         469.938           0.255  
> 2026 02 15 23 36 18.7688020  0  7                     
G02  23500429.695      103508.759        1324.376           0.255  
G03  23977087.124      348642.818        4511.788           0.255  
G04  20965137.687      249009.490        3234.062           0.255  
G05  20602380.778      118243.380        1544.677           0.255  
G06  23971680.674      372484.090        4918.284           0.255  
G07  22037833.505       96230.758        1279.155           0.255  
G09  24174041.705       35555.799         470.848           0.255  
> 2026 02 15 23 36 18.8688020  0  7                     
G02  23500393.951      103640.375        1316.947           0.255  
G03  23976971.928      349093.589        4507.055           0.255  
G04  20965051.488      249332.518        3229.124           0.255  
G05  20602343.876      118397.505        1540.587           0.255  
G06  23971557.828      372975.568        4912.383           0.255  
G07  22037802.519       96358.248        1272.679           0.255  
G09  24174030.235       35602.563         465.706           0.255  
> 2026 02 15 23 36 18.9688020  0  7                     
G02  23500356.161      103772.124        1317.961           0.255  
G03  23976858.445      349544.304        4509.453           0.255  
G04  20964971.671      249655.514        3231.520           0.255  
G05  20602306.932      118551.594        1542.553           0.255  
G06  23971428.724      373467.019        4915.424           0.255  
G07  22037772.745       96485.726        1276.146           0.255  
G09  24174020.730       35649.325         469.549           0.255  
> 2026 02 15 23 36 19.0688020  0  7                     
G02  23500323.100      103904.625        1328.599           0.255  
G03  23976743.215      349995.791        4519.119           0.255  
G04  20964894.668      249979.236        3241.605           0.255  
G05  20602265.172      118706.415        1551.507           0.255  
G06  23971305.750      373959.204        4924.286           0.255  
G07  22037735.678       96613.949        1285.619           0.255  
G09  24174011.917       35696.783         478.180           0.255  
> 2026 02 15 23 36 19.1688020  0  7                     
G02  23500290.853      104037.217        1325.501           0.255  
G03  23976625.442      350447.380        4513.998           0.255  
G04  20964813.348      250303.066        3236.118           0.255  
G05  20602222.001      118861.329        1547.449           0.255  
G06  23971178.439      374451.478        4920.702           0.255  
G07  22037702.612       96742.298        1284.104           0.255  
G09  24173997.711       35744.352         475.276           0.255  
> 2026 02 15 23 36 19.2688020  0  7                     
G02  23500257.419      104169.396        1319.941           0.255  
G03  23976513.735      350898.564        4511.295           0.255  
G04  20964729.674      250626.524        3235.089           0.255  
G05  20602180.542      119015.875        1544.622           0.255  
G06  23971046.601      374943.389        4920.621           0.255  
G07  22037670.993       96870.232        1278.272           0.255  
G09  24173989.650       35791.558         472.905           0.255  
> 2026 02 15 23 36 19.3688020  0  7                     
G02  23500227.082      104301.125        1318.366           0.255  
G03  23976403.901      351349.288        4507.614           0.255  
G04  20964642.682      250949.495        3230.438           0.255  
G05  20602141.914      119169.965        1541.253           0.255  
G06  23970922.298      375434.829        4914.743           0.255  
G07  22037638.505       96997.679        1274.094           0.255  
G09  24173981.418       35838.270         467.823           0.255  
> 2026 02 15 23 36 19.4688020  0  7                     
G02  23500192.156      104433.130        1320.946           0.255  
G03  23976286.108      351800.317        4511.856           0.255  
G04  20964560.500      251272.732        3233.624           0.255  
G05  20602104.336      119324.312        1543.348           0.255  
G06  23970801.357      375926.555        4918.031           0.255  
G07  22037603.705       97125.432        1275.775           0.255  
G09  24173964.697       35885.293         470.502           0.255  
> 2026 02 15 23 36 19.5688020  0  7                     
G02  23500152.837      104565.267        1313.526           0.255  
G03  23976166.805      352251.461        4505.735           0.255  
G04  20964476.774      251596.117        3227.404           0.255  
G05  20602067.524      119478.788        1537.897           0.255  
G06  23970676.638      376418.423        4911.559           0.255  
G07  22037569.168       97253.327        1272.865           0.255  
G09  24173950.145       35932.411         464.643           0.255  
> 2026 02 15 23 36 19.6688020  0  7                     
G02  23500116.398      104695.822        1307.914           0.255  
G03  23976052.425      352701.023        4502.371           0.255  
G04  20964396.279      251917.919        3222.640           0.255  
G05  20602028.910      119631.704        1533.826           0.255  
G06  23970549.081      376908.706        4907.200           0.255  
G07  22037534.588       97379.633        1266.428           0.255  
G09  24173942.252       35977.960         459.955           0.255  
> 2026 02 15 23 36 19.7688020  0  7                     
G02  23500086.038      104827.101        1316.288           0.255  
G03  23975937.336      353151.296        4508.716           0.255  
G04  20964314.726      252240.431        3228.797           0.255  
G05  20601986.872      119785.318        1540.019           0.255  
G06  23970422.749      377399.691        4913.354           0.255  
G07  22037504.297       97506.639        1274.296           0.255  
G09  24173930.985       36024.223         466.021           0.255  
> 2026 02 15 23 36 19.8688020  0  7                     
G02  23500055.980      104957.986        1308.662           0.255  
G03  23975820.401      353601.192        4500.838           0.255  
G04  20964234.715      252562.582        3222.755           0.255  
G05  20601945.446      119938.564        1532.963           0.255  
G06  23970299.690      377890.318        4905.746           0.255  
G07  22037473.948       97633.321        1267.698           0.255  
G09  24173916.305       36070.116         459.325           0.255  
> 2026 02 15 23 36 19.9688020  0  7                     
G02  23500020.428      105089.991        1289.051           0.255  
G03  23975704.303      354052.067        4505.303           0.255  
G04  20964150.843      252885.644        3182.472           0.255  
G05  20601909.098      120092.770        1537.390           0.255  
G06  23970171.407      378381.895        4911.328           0.255  
G07  22037437.264       97760.905        1272.731           0.255  
G09  24173898.188       36116.961         463.899           0.255  
> 2026 02 15 23 36 20.0688020  0  7                     
G02  23499986.030      105221.218        1309.811           0.255  
G03  23975591.602      354502.454        4501.195           0.255  
G04  20964068.650      253208.297        3223.518           0.255  
G05  20601873.104      120246.485        1535.226           0.255  
G06  23970046.244      378873.006        4907.638           0.255  
G07  22037401.987       97887.669        1246.694           0.255  
G09  24173887.039       36163.316         461.008           0.255  
> 2026 02 15 23 36 20.1688020  0  7                     
G02  23499953.014      105352.808        1319.991           0.255  
G03  23975482.007      354953.053        4513.044           0.255  
G04  20963982.968      253531.139        3234.601           0.255  
G05  20601834.443      120400.407        1543.753           0.255  
G06  23969925.168      379364.320        4918.075           0.255  
G07  22037371.620       98015.396        1280.283           0.255  
G09  24173878.943       36209.876         468.330           0.255  
> 2026 02 15 23 36 20.2688020  0  7                     
G02  23499916.223      105484.808        1317.820           0.255  
G03  23975368.395      355404.079        4508.599           0.255  
G04  20963897.745      253854.389        3230.513           0.255  
G05  20601795.225      120554.772        1539.825           0.255  
G06  23969802.326      379856.081        4915.616           0.255  
G07  22037339.704       98143.170        1274.450           0.255  
G09  24173871.847       36256.894         468.642           0.255  
> 2026 02 15 23 36 20.3688020  0  7                     
G02  23499878.705      105616.602        1315.635           0.255  
G03  23975250.327      355854.891        4507.450           0.255  
G04  20963814.481      254177.425        3230.828           0.255  
G05  20601757.392      120708.929        1542.614           0.255  
G06  23969673.209      380347.623        4917.474           0.255  
G07  22037303.348       98270.728        1277.824           0.255  
G09  24173856.956       36303.711         470.332           0.255  
> 2026 02 15 23 36 20.4688020  0  7                     
G02  23499847.454      105747.975        1309.378           0.255  
G03  23975132.209      356305.286        4498.324           0.255  
G04  20963734.665      254500.042        3221.665           0.255  
G05  20601714.404      120862.657        1534.194           0.255  
G06  23969546.554      380838.721        4906.373           0.255  
G07  22037274.538       98397.852        1268.306           0.255  
G09  24173842.144       36350.038         459.745           0.255  
> 2026 02 15 23 36 20.5688020  0  7                     
G02  23499818.582      105878.811        1311.707           0.255  
G03  23975018.608      356755.159        4501.927           0.255  
G04  20963656.371      254822.115        3223.327           0.255  
G05  20601669.854      121015.832        1534.493           0.255  
G06  23969421.644      381329.325        4909.070           0.255  
G07  22037240.183       98524.479        1272.294           0.255  
G09  24173833.783       36395.863         459.893           0.255  
> 2026 02 15 23 36 20.6688020  0  7                     
G02  23499779.984      106010.219        1318.862           0.255  
G03  23974906.092      357205.573        4508.006           0.255  
G04  20963577.430      255144.780        3231.211           0.255  
G05  20601632.241      121169.593        1541.404           0.255  
G06  23969290.259      381820.485        4914.113           0.255  
G07  22037204.598       98651.636        1274.014           0.255  
G09  24173818.074       36442.283         466.628           0.255  
> 2026 02 15 23 36 20.7688020  0  7                     
G02  23499744.321      106142.042        1317.828           0.255  
G03  23974784.510      357656.438        4507.316           0.255  
G04  20963496.320      255467.863        3230.612           0.255  
G05  20601597.219      121323.773        1542.128           0.255  
G06  23969162.995      382312.074        4917.023           0.255  
G07  22037172.812       98779.230        1274.334           0.255  
G09  24173799.976       36489.097         469.014           0.255  
> 2026 02 15 23 36 20.8688020  0  7                     
G02  23499707.711      106272.071        1209.288           0.255  
G03  23974669.169      358106.534        4498.761           0.255  
G04  20963409.530      255790.170        3219.996           0.255  
G05  20601561.416      121477.201        1531.176           0.255  
G06  23969044.844      382802.902        4903.587           0.255  
G07  22037141.754       98906.081        1263.459           0.255  
G09  24173793.631       36535.152         457.064           0.255  
> 2026 02 15 23 36 20.9688020  0  7                     
G02  23499670.421      106404.102        1311.202           0.255  
G03  23974563.980      358556.560        4499.527           0.255  
G04  20963320.480      256112.420        3224.737           0.255  
G05  20601523.769      121630.552        1534.849           0.255  
G06  23968924.172      383293.675        4908.658           0.255  
G07  22037108.625       99032.877        1268.655           0.255  
G09  24173783.136       36581.172         460.189           0.255  
> 2026 02 15 23 36 21.0688020  0  7                     
G02  23499640.266      106534.718        1303.385           0.255  
G03  23974446.629      359006.224        4493.283           0.255  
G04  20963234.830      256434.291        3215.987           0.255  
G05  20601486.670      121783.533        1526.281           0.255  
G06  23968791.830      383784.079        4899.604           0.255  
G07  22037079.350       99159.295        1262.758           0.255  
G09  24173775.175       36626.790         453.351           0.255  
> 2026 02 15 23 36 21.1688020  0  7                     
G02  23499611.686      106666.252        1320.490           0.255  
G03  23974328.567      359456.805        4510.933           0.255  
G04  20963156.628      256757.072        3232.844           0.255  
G05  20601441.138      121937.421        1544.088           0.255  
G06  23968669.765      384275.374        4917.831           0.255  
G07  22037045.240       99286.565        1266.066           0.255  
G09  24173759.916       36673.291         470.221           0.255  
> 2026 02 15 23 36 21.2688020  0  7                     
G02  23499578.598      106797.345        1266.341           0.255  
G03  23974215.742      359907.567        4504.290           0.255  
G04  20963081.091      257080.023        3226.748           0.255  
G05  20601397.065      122091.504        1539.924           0.255  
G06  23968545.478      384766.898        4915.810           0.255  
G07  22037008.366       99414.096        1273.566           0.255  
G09  24173747.466       36720.016         467.500           0.255  
> 2026 02 15 23 36 21.3688020  0  7                     
G02  23499541.607      106929.658        1315.707           0.255  
G03  23974105.933      360358.321        4503.878           0.255  
G04  20963004.337      257402.978        3228.354           0.255  
G05  20601358.212      122245.555        1539.742           0.255  
G06  23968408.675      385258.382        4915.444           0.255  
G07  22036972.481       99541.576        1274.264           0.255  
G09  24173738.306       36766.699         465.573           0.255  
> 2026 02 15 23 36 21.4688020  0  7                     
G02  23499504.637      107061.070        1312.081           0.255  
G03  23973982.896      360808.799        4501.480           0.255  
G04  20962915.224      257725.627        3223.620           0.255  
G05  20601322.324      122399.328        1535.367           0.255  
G06  23968287.195      385749.530        4907.039           0.255  
G07  22036945.087       99668.787        1269.911           0.255  
G09  24173728.748       36813.131         462.403           0.255  
> 2026 02 15 23 36 21.5688020  0  7                     
G02  23499471.646      107192.100        1310.301           0.255  
G03  23973859.400      361258.884        4500.896           0.255  
G04  20962825.060      258047.913        3221.612           0.255  
G05  20601285.950      122552.702        1534.543           0.255  
G06  23968174.786      386240.373        4909.843           0.255  
G07  22036918.084       99795.597        1266.772           0.255  
G09  24173714.123       36859.142         462.202           0.255  
> 2026 02 15 23 36 21.6688020  0  7                     
G02  23499439.909      107323.517        1318.920           0.255  
G03  23973753.567      361709.339        4509.386           0.255  
G04  20962740.217      258370.587        3229.706           0.255  
G05  20601245.392      122706.492        1539.846           0.255  
G06  23968045.934      386731.561        4913.741           0.255  
G07  22036888.684       99922.801        1272.850           0.255  
G09  24173694.955       36905.556         468.661           0.255  
> 2026 02 15 23 36 21.7688020  0  7                     
G02  23499406.186      107455.255        1317.962           0.255  
G03  23973642.012      362160.114        4508.235           0.255  
G04  20962660.333      258693.546        3226.897           0.255  
G05  20601204.393      122860.575        1539.328           0.255  
G06  23967914.226      387223.078        4913.415           0.255  
G07  22036853.329      100050.335        1272.090           0.255  
G09  24173682.428       36952.252         464.443           0.255  
> 2026 02 15 23 36 21.8688020  0  7                     
G02  23499376.129      107586.599        1314.922           0.255  
G03  23973521.365      362610.532        4503.496           0.255  
G04  20962585.313      259016.169        3226.675           0.255  
G05  20601163.236      123014.313        1537.924           0.255  
G06  23967794.997      387714.256        4913.003           0.255  
G07  22036815.714      100177.501        1272.387           0.255  
G09  24173669.093       36998.636         464.518           0.255  
> 2026 02 15 23 36 21.9688020  0  7                     
G02  23499335.609      107718.830        1385.928           0.255  
G03  23973408.111      363061.261        4508.204           0.255  
G04  20962506.046      259338.942        3234.891           0.255  
G05  20601123.153      123168.346        1541.425           0.255  
G06  23967667.200      388205.731        4916.656           0.255  
G07  22036784.248      100304.973        1275.454           0.255  
G09  24173652.428       37045.298         469.321           0.255  
> 2026 02 15 23 36 22.0688020  0  7                     
G02  23499304.365      107849.769        1313.744           0.255  
G03  23973299.831      363511.833        4505.896           0.255  
G04  20962422.449      259661.829        3226.127           0.255  
G05  20601084.279      123322.213        1537.353           0.255  
G06  23967532.869      388697.038        4911.018           0.255  
G07  22036756.621      100432.319        1275.222           0.255  
G09  24173643.195       37091.781         463.157           0.255  
> 2026 02 15 23 36 22.1688020  0  7                     
G02  23499267.129      107981.245        1316.787           0.255  
G03  23973187.808      363962.394        4509.351           0.255  
G04  20962334.565      259984.580        3231.173           0.255  
G05  20601045.744      123476.087        1544.010           0.255  
G06  23967419.805      389188.344        4918.656           0.255  
G07  22036725.371      100559.599        1277.099           0.255  
G09  24173636.897       37138.289         470.703           0.255  
> 2026 02 15 23 36 22.2688020  0  7                     
G02  23499233.535      108113.319        1322.601           0.255  
G03  23973060.665      364413.493        4510.859           0.255  
G04  20962243.775      260307.878        3234.329           0.255  
G05  20601007.512      123630.506        1545.819           0.255  
G06  23967298.916      389680.171        4920.941           0.255  
G07  22036691.921      100687.466        1280.027           0.255  
G09  24173626.971       37185.316         469.315           0.255  
> 2026 02 15 23 36 22.3688020  0  7                     
G02  23499205.236      108245.287        1319.198           0.255  
G03  23972941.323      364864.593        4508.055           0.255  
G04  20962161.621      260631.120        3230.439           0.255  
G05  20600969.749      123784.852        1541.913           0.255  
G06  23967164.111      390172.001        4918.491           0.255  
G07  22036657.678      100815.301        1277.722           0.255  
G09  24173621.303       37232.337         470.100           0.255  
> 2026 02 15 23 36 22.4688020  0  7                     
G02  23499175.094      108377.203        1322.437           0.255  
G03  23972833.349      365315.573        4508.816           0.255  
G04  20962086.730      260954.291        3232.804           0.255  
G05  20600923.474      123939.147        1544.243           0.255  
G06  23967039.366      390663.733        4917.218           0.255  
G07  22036621.754      100943.012        1277.895           0.255  
G09  24173603.498       37279.243         472.948           0.255  
> 2026 02 15 23 36 22.5688020  0  7                     
G02  23499135.884      108508.567        1313.283           0.255  
G03  23972715.102      365766.005        4502.398           0.255  
G04  20962014.152      261276.886        3224.664           0.255  
G05  20600877.736      124092.848        1536.075           0.255  
G06  23966915.627      391154.879        4908.643           0.255  
G07  22036588.798      101070.172        1268.755           0.255  
G09  24173592.490       37325.579         462.132           0.255  
> 2026 02 15 23 36 22.6688020  0  7                     
G02  23499103.861      108640.204        1321.811           0.255  
G03  23972596.253      366216.757        4516.593           0.255  
G04  20961931.915      261599.756        3232.540           0.255  
G05  20600838.796      124246.871        1543.432           0.255  
G06  23966783.032      391646.370        4919.631           0.255  
G07  22036560.827      101197.620        1276.226           0.255  
G09  24173582.651       37372.223         469.096           0.255  
> 2026 02 15 23 36 22.7688020  0  7                     
G02  23499073.455      108772.181        1318.053           0.255  
G03  23972485.430      366667.811        4510.707           0.255  
G04  20961843.902      261923.017        3230.998           0.255  
G05  20600803.174      124401.255        1542.728           0.255  
G06  23966656.609      392138.190        4917.313           0.255  
G07  22036529.261      101325.453        1278.272           0.255  
G09  24173568.033       37419.218         469.141           0.255  
> 2026 02 15 23 36 22.8688020  0  7                     
G02  23499040.144      108903.444        1308.833           0.255  
G03  23972378.015      367118.355        4500.533           0.255  
G04  20961754.687      262245.715        3224.661           0.255  
G05  20600765.760      124555.063        1535.574           0.255  
G06  23966538.687      392629.481        4909.723           0.255  
G07  22036494.430      101452.730        1268.506           0.255  
G09  24173547.250       37465.654         461.726           0.255  
> 2026 02 15 23 36 22.9688020  0  7                     
G02  23499004.405      109034.993        1315.471           0.255  
G03  23972262.919      367568.830        4507.292           0.255  
G04  20961666.991      262568.350        3230.379           0.255  
G05  20600730.005      124708.828        1540.804           0.255  
G06  23966415.199      393120.697        4917.271           0.255  
G07  22036466.200      101579.960        1275.280           0.255  
G09  24173533.355       37512.025         465.524           0.255  
> 2026 02 15 23 36 23.0688020  0  7                     
G02  23498972.740      109167.037        1323.666           0.255  
G03  23972142.845      368019.948        4516.781           0.255  
G04  20961585.084      262891.633        3237.312           0.255  
G05  20600693.404      124863.238        1547.453           0.255  
G06  23966286.396      393612.563        4922.738           0.255  
G07  22036430.564      101707.794        1279.811           0.255  
G09  24173525.385       37559.054         472.354           0.255  
> 2026 02 15 23 36 23.1688020  0  7                     
G02  23498938.566      109299.139        1318.267           0.255  
G03  23972030.345      368471.129        4506.155           0.255  
G04  20961509.096      263214.964        3228.481           0.255  
G05  20600647.124      125017.689        1539.969           0.255  
G06  23966162.565      394104.463        4914.167           0.255  
G07  22036392.806      101835.678        1272.318           0.255  
G09  24173509.383       37606.129         463.495           0.255  
> 2026 02 15 23 36 23.2688020  0  7                     
G02  23498899.539      109430.451        1311.054           0.255  
G03  23971917.922      368921.615        4500.540           0.255  
G04  20961437.440      263537.578        3222.789           0.255  
G05  20600600.560      125171.422        1534.351           0.255  
G06  23966036.784      394595.672        4910.843           0.255  
G07  22036367.850      101962.903        1267.053           0.255  
G09  24173498.019       37652.541         464.122           0.255  
> 2026 02 15 23 36 23.3688020  0  7                     
G02  23498873.791      109561.673        1312.832           0.255  
G03  23971793.583      369371.916        4504.030           0.255  
G04  20961355.725      263860.043        3225.064           0.255  
G05  20600561.083      125325.012        1534.648           0.255  
G06  23965899.939      395086.708        4909.039           0.255  
G07  22036343.879      102089.968        1268.752           0.255  
G09  24173490.127       37698.720         462.706           0.255  
> 2026 02 15 23 36 23.4688020  0  7                     
G02  23498838.715      109693.259        1317.002           0.255  
G03  23971677.692      369822.595        4509.692           0.255  
G04  20961266.447      264182.880        3230.877           0.255  
G05  20600524.822      125478.982        1542.282           0.255  
G06  23965779.605      395578.150        4915.790           0.255  
G07  22036305.179      102217.435        1280.475           0.255  
G09  24173484.603       37745.299         467.273           0.255  
> 2026 02 15 23 36 23.5688020  0  7                     
G02  23498801.478      109824.776        1309.386           0.255  
G03  23971569.117      370273.236        4500.381           0.255  
G04  20961177.003      264505.656        3221.756           0.255  
G05  20600486.989      125632.880        1533.269           0.255  
G06  23965665.480      396069.532        4906.399           0.255  
G07  22036267.755      102344.785        1268.812           0.255  
G09  24173475.254       37791.842         459.403           0.255  
> 2026 02 15 23 36 23.6688020  0  7                     
G02  23498769.162      109955.600        1307.102           0.255  
G03  23971456.177      370723.244        4501.054           0.255  
G04  20961093.580      264827.781        3223.782           0.255  
G05  20600449.324      125786.132        1535.524           0.255  
G06  23965536.722      396560.258        4908.263           0.255  
G07  22036231.834      102471.475        1271.737           0.255  
G09  24173458.648       37837.663         458.665           0.255  
> 2026 02 15 23 36 23.7688020  0  7                     
G02  23498737.852      110087.159        1318.164           0.255  
G03  23971337.465      371173.845        4510.568           0.255  
G04  20961013.010      265150.565        3232.189           0.255  
G05  20600411.237      125940.044        1545.148           0.255  
G06  23965407.669      397051.669        4917.653           0.255  
G07  22036197.645      102598.838        1278.000           0.255  
G09  24173443.087       37884.202         469.110           0.255  
> 2026 02 15 23 36 23.8688020  0  7                     
G02  23498700.270      110218.336        1305.893           0.255  
G03  23971225.057      371624.150        4498.321           0.255  
G04  20960934.524      265473.002        3219.115           0.255  
G05  20600370.206      126093.611        1530.158           0.255  
G06  23965288.279      397542.707        4905.396           0.255  
G07  22036169.018      102725.880        1264.305           0.255  
G09  24173437.816       37930.399         452.920           0.255  
> 2026 02 15 23 36 23.9688020  0  7                     
G02  23498668.537      110348.650        1300.738           0.255  
G03  23971116.370      372073.586        4493.332           0.255  
G04  20960854.768      265794.595        3215.533           0.255  
G05  20600330.343      126246.326        1527.033           0.255  
G06  23965158.016      398032.922        4900.987           0.255  
G07  22036141.058      102852.079        1259.679           0.255  
G09  24173425.918       37975.738         452.699           0.255  
> 2026 02 15 23 36 24.0688020  0  7                     
G02  23498643.969      110478.949        1308.231           0.255  
G03  23970998.479      372522.995        4498.286           0.255  
G04  20960774.578      266116.118        3219.802           0.255  
G05  20600291.212      126398.985        1531.080           0.255  
G06  23965025.271      398523.063        4907.308           0.255  
G07  22036106.383      102978.199        1269.364           0.255  
G09  24173404.757       38021.033         457.986           0.255  
> 2026 02 15 23 36 24.1688020  0  7                     
G02  23498613.898      110610.234        1317.344           0.255  
G03  23970876.741      372973.377        4507.343           0.255  
G04  20960691.305      266438.631        3228.959           0.255  
G05  20600257.987      126552.639        1541.276           0.255  
G06  23964900.953      399014.191        4914.728           0.255  
G07  22036066.394      103105.294        1276.334           0.255  
G09  24173390.985       38067.304         468.100           0.255  
> 2026 02 15 23 36 24.2688020  0  7                     
G02  23498577.452      110741.889        1309.282           0.255  
G03  23970758.083      373424.204        4501.455           0.255  
G04  20960602.310      266761.592        3223.495           0.255  
G05  20600220.381      126706.737        1536.054           0.255  
G06  23964784.379      399505.799        4908.753           0.255  
G07  22036032.078      103232.877        1269.129           0.255  
G09  24173387.300       38113.996         464.913           0.255  
> 2026 02 15 23 36 24.3688020  0  7                     
G02  23498537.202      110873.080        1348.147           0.255  
G03  23970646.546      373874.223        4498.908           0.255  
G04  20960514.596      267083.735        3220.104           0.255  
G05  20600181.540      126860.002        1531.832           0.255  
G06  23964662.494      399996.560        4903.076           0.255  
G07  22035993.946      103359.621        1267.330           0.255  
G09  24173374.710       38159.895         461.304           0.255  
> 2026 02 15 23 36 24.4688020  0  7                     
G02  23498504.285      111003.718        1309.058           0.255  
G03  23970529.964      374324.271        4500.042           0.255  
G04  20960438.532      267405.924        3221.177           0.255  
G05  20600139.486      127013.320        1532.596           0.255  
G06  23964532.311      400487.394        4907.961           0.255  
G07  22035965.461      103486.453        1269.774           0.255  
G09  24173368.327       38205.796         458.659           0.255  
> 2026 02 15 23 36 24.5688020  0  7                     
G02  23498468.304      111135.170        1319.056           0.255  
G03  23970416.391      374774.890        4509.801           0.255  
G04  20960358.374      267728.621        3228.188           0.255  
G05  20600094.958      127167.159        1542.237           0.255  
G06  23964407.908      400978.789        4918.744           0.255  
G07  22035940.270      103613.747        1274.510           0.255  
G09  24173351.849       38252.243         469.052           0.255  
> 2026 02 15 23 36 24.6688020  0  7                     
G02  23498443.109      111266.846        1316.838           0.255  
G03  23970303.158      375225.707        4509.134           0.255  
G04  20960277.817      268051.580        3229.781           0.255  
G05  20600051.023      127321.244        1539.920           0.255  
G06  23964279.687      401470.352        4920.503           0.255  
G07  22035909.266      103741.293        1276.708           0.255  
G09  24173344.643       38298.923         465.161           0.255  
> 2026 02 15 23 36 24.7688020  0  7                     
G02  23498410.723      111398.564        1314.557           0.255  
G03  23970192.525      375676.562        4505.027           0.255  
G04  20960193.740      268374.595        3228.350           0.255  
G05  20600015.914      127475.402        1539.793           0.255  
G06  23964146.432      401962.008        4920.671           0.255  
G07  22035869.579      103868.907        1272.929           0.255  
G09  24173332.634       38345.738         468.287           0.255  
> 2026 02 15 23 36 24.8688020  0  7                     
G02  23498371.842      111529.628        1314.691           0.255  
G03  23970075.114      376126.657        4497.938           0.255  
G04  20960110.314      268696.773        3220.702           0.255  
G05  20599982.644      127628.717        1530.952           0.255  
G06  23964028.028      402452.834        4909.094           0.255  
G07  22035834.355      103995.753        1264.266           0.255  
G09  24173310.229       38391.612         458.309           0.255  
> 2026 02 15 23 36 24.9688020  0  7                     
G02  23498333.775      111660.091        1302.651           0.255  
G03  23969960.378      376576.408        4497.144           0.255  
G04  20960024.194      269018.620        3215.174           0.255  
G05  20599948.778      127781.695        1528.294           0.255  
G06  23963909.561      402943.316        4901.568           0.255  
G07  22035796.793      104122.226        1262.589           0.255  
G09  24173288.948       38437.232         454.390           0.255  
> 2026 02 15 23 36 25.0688020  0  7                     
G02  23498293.993      111790.529        1306.184           0.255  
G03  23969836.110      377026.019        4501.862           0.255  
G04  20959938.691      269340.336        3220.328           0.255  
G05  20599912.454      127934.523        1528.972           0.255  
G06  23963785.390      403433.673        4903.316           0.255  
G07  22035766.032      104248.504        1262.281           0.255  
G09  24173286.976       38482.672         453.690           0.255  
> 2026 02 15 23 36 25.1688020  0  7                     
G02  23498260.477      111921.658        1312.436           0.255  
G03  23969725.002      377476.263        4507.441           0.255  
G04  20959855.866      269662.719        3228.071           0.255  
G05  20599870.145      128088.045        1538.243           0.255  
G06  23963655.030      403924.705        4914.558           0.255  
G07  22035743.843      104375.524        1270.987           0.255  
G09  24173276.563       38528.807         462.872           0.255  
> 2026 02 15 23 36 25.2688020  0  7                     
G02  23498232.295      112054.133        1341.375           0.255  
G03  23969610.330      377927.262        4512.427           0.255  
G04  20959781.025      269985.790        3231.521           0.255  
G05  20599822.669      128242.277        1544.619           0.255  
G06  23963530.392      404416.458        4917.931           0.255  
G07  22035708.608      104503.271        1280.102           0.255  
G09  24173256.637       38575.658         468.590           0.255  
> 2026 02 15 23 36 25.3688020  0  7                     
G02  23498203.775      112185.248        1316.557           0.255  
G03  23969495.123      378378.138        4508.389           0.255  
G04  20959706.786      270308.795        3229.615           0.255  
G05  20599779.711      128396.397        1540.763           0.255  
G06  23963404.926      404908.112        4915.561           0.255  
G07  22035670.563      104630.902        1277.978           0.255  
G09  24173248.031       38622.353         464.614           0.255  
> 2026 02 15 23 36 25.4688020  0  7                     
G02  23498166.079      112316.748        1316.266           0.255  
G03  23969377.599      378828.790        4504.567           0.255  
G04  20959623.073      270631.556        3228.933           0.255  
G05  20599743.625      128550.318        1539.623           0.255  
G06  23963268.474      405399.549        4913.574           0.255  
G07  22035633.900      104758.304        1277.063           0.255  
G09  24173244.197       38668.880         466.159           0.255  
> 2026 02 15 23 36 25.5688020  0  7                     
G02  23498128.998      112447.851        1380.037           0.255  
G03  23969274.482      379279.234        4503.995           0.255  
G04  20959536.043      270954.048        3225.709           0.255  
G05  20599705.017      128703.954        1539.057           0.255  
G06  23963152.682      405890.715        4912.667           0.255  
G07  22035603.582      104886.317        1379.417           0.255  
G09  24173235.620       38715.167         465.428           0.255  
> 2026 02 15 23 36 25.6688020  0  7                     
G02  23498089.625      112579.188        1311.468           0.255  
G03  23969163.390      379729.623        4511.525           0.255  
G04  20959446.049      271276.542        3224.835           0.255  
G05  20599669.566      128857.575        1534.876           0.255  
G06  23963034.003      406381.873        4912.531           0.255  
G07  22035571.478      105012.532        1270.952           0.255  
G09  24173231.968       38761.334         459.498           0.255  
> 2026 02 15 23 36 25.7688020  0  7                     
G02  23498055.941      112710.642        1316.479           0.255  
G03  23969039.677      380180.166        4512.549           0.255  
G04  20959358.037      271599.248        3229.765           0.255  
G05  20599631.995      129011.436        1539.746           0.255  
G06  23962902.818      406873.236        4914.231           0.255  
G07  22035545.653      105139.912        1272.881           0.255  
G09  24173212.302       38807.844         468.064           0.255  
> 2026 02 15 23 36 25.8688020  0  7                     
G02  23498026.107      112842.440        1317.526           0.255  
G03  23968920.899      380631.145        4512.542           0.255  
G04  20959281.157      271922.319        3232.047           0.255  
G05  20599592.134      129165.651        1540.989           0.255  
G06  23962774.332      407364.980        4914.098           0.255  
G07  22035517.818      105267.631        1279.416           0.255  
G09  24173194.614       38854.633         463.436           0.255  
> 2026 02 15 23 36 25.9688020  0  7                     
G02  23497998.130      112974.147        1318.359           0.255  
G03  23968810.238      381082.005        4503.546           0.255  
G04  20959208.116      272245.274        3230.478           0.255  
G05  20599544.428      129319.754        1541.841           0.255  
G06  23962654.108      407856.665        4918.149           0.255  
G07  22035477.623      105395.202        1272.056           0.255  
G09  24173180.788       38901.335         466.087           0.255  
> 2026 02 15 23 36 26.0688020  0  7                     
G02  23497957.993      113105.736        1313.934           0.255  
G03  23968694.704      381532.824        4503.782           0.255  
G04  20959133.354      272568.145        3225.266           0.255  
G05  20599504.417      129473.773        1537.470           0.255  
G06  23962520.850      408348.236        4913.801           0.255  
G07  22035443.586      105522.717        1275.168           0.255  
G09  24173161.395       38947.987         468.279           0.255  
> 2026 02 15 23 36 26.1688020  0  7                     
G02  23497915.524      113236.639        1307.259           0.255  
G03  23968568.471      381982.892        4494.659           0.255  
G04  20959051.726      272890.294        3217.925           0.255  
G05  20599468.753      129627.059        1528.691           0.255  
G06  23962386.248      408839.037        4905.076           0.255  
G07  22035413.009      105649.475        1263.499           0.255  
G09  24173141.516       38993.858         457.029           0.255  
> 2026 02 15 23 36 26.2688020  0  7                     
G02  23497883.286      113367.328        1304.684           0.255  
G03  23968458.530      382432.794        4502.541           0.255  
G04  20958960.310      273212.271        3220.693           0.255  
G05  20599433.335      129780.171        1531.037           0.255  
G06  23962273.800      409329.687        4905.103           0.255  
G07  22035386.178      105776.152        1267.646           0.255  
G09  24173135.328       39039.578         458.064           0.255  
> 2026 02 15 23 36 26.3688020  0  7                     
G02  23497848.471      113498.458        1387.890           0.255  
G03  23968354.111      382882.987        4499.958           0.255  
G04  20958865.988      273534.479        3273.707           0.255  
G05  20599394.324      129933.590        1535.253           0.255  
G06  23962159.902      409820.653        4907.347           0.255  
G07  22035354.414      105902.700        1292.394           0.255  
G09  24173128.760       39085.568         459.702           0.255  
> 2026 02 15 23 36 26.4688020  0  7                     
G02  23497814.500      113629.795        1311.160           0.255  
G03  23968239.185      383333.656        4508.364           0.255  
G04  20958779.124      273857.264        3225.009           0.255  
G05  20599355.176      130087.431        1535.013           0.255  
G06  23962020.821      410312.073        4909.177           0.255  
G07  22035324.856      106030.422        1268.074           0.255  
G09  24173122.832       39132.040         466.133           0.255  
> 2026 02 15 23 36 26.5688020  0  7                     
G02  23497790.987      113761.092        1317.328           0.255  
G03  23968116.131      383784.079        4511.897           0.255  
G04  20958704.921      274179.819        3230.330           0.255  
G05  20599310.398      130241.134        1540.452           0.255  
G06  23961894.020      410803.314        4917.146           0.255  
G07  22035290.146      106157.648        1275.142           0.255  
G09  24173115.247       39178.349         469.182           0.255  
> 2026 02 15 23 36 26.6688020  0  7                     
G02  23497758.389      113892.633        1316.140           0.255  
G03  23968010.083      384234.848        4509.835           0.255  
G04  20958633.230      274502.616        3227.497           0.255  
G05  20599264.653      130395.101        1537.340           0.255  
G06  23961776.433      411294.835        4913.668           0.255  
G07  22035249.626      106285.120        1274.194           0.255  
G09  24173102.840       39224.888         463.163           0.255  
> 2026 02 15 23 36 26.7688020  0  7                     
G02  23497719.180      114023.991        1311.127           0.255  
G03  23967898.440      384685.431        4506.757           0.255  
G04  20958553.768      274825.265        3225.152           0.255  
G05  20599224.635      130548.914        1538.096           0.255  
G06  23961640.375      411786.201        4915.182           0.255  
G07  22035218.808      106412.665        1309.406           0.255  
G09  24173095.291       39271.299         462.512           0.255  
> 2026 02 15 23 36 26.8688020  0  7                     
G02  23497681.112      114155.125        1308.422           0.255  
G03  23967775.338      385135.769        4501.929           0.255  
G04  20958466.179      275147.677        3221.756           0.255  
G05  20599188.835      130702.468        1533.329           0.255  
G06  23961508.901      412277.295        4908.516           0.255  
G07  22035193.370      106539.465        1268.723           0.255  
G09  24173088.442       39317.431         459.034           0.255  
> 2026 02 15 23 36 26.9688020  0  7                     
G02  23497642.965      114286.242        1310.358           0.255  
G03  23967650.639      385586.025        4501.961           0.255  
G04  20958375.492      275470.023        3223.787           0.255  
G05  20599154.488      130855.974        1536.011           0.255  
G06  23961397.593      412768.344        4911.836           0.255  
G07  22035163.500      106666.508        1272.725           0.255  
G09  24173066.029       39363.570         461.102           0.255  
> 2026 02 15 23 36 27.0688020  0  7                     
G02  23497618.362      114417.404        1310.827           0.255  
G03  23967542.642      386036.410        4503.174           0.255  
G04  20958289.845      275792.435        3221.496           0.255  
G05  20599118.072      131009.542        1531.744           0.255  
G06  23961274.741      413259.473        4910.729           0.255  
G07  22035134.479      106793.576        1268.900           0.255  
G09  24173043.144       39409.719         457.803           0.255  
> 2026 02 15 23 36 27.1688020  0  7                     
G02  23497588.429      114548.119        1303.012           0.255  
G03  23967430.075      386486.325        4497.721           0.255  
G04  20958211.041      276114.433        3217.722           0.255  
G05  20599078.865      131162.702        1530.598           0.255  
G06  23961147.176      413750.209        4903.655           0.255  
G07  22035096.500      106920.222        1263.442           0.255  
G09  24173031.891       39455.451         450.815           0.255  
> 2026 02 15 23 36 27.2688020  0  7                     
G02  23497556.995      114678.972        1310.704           0.255  
G03  23967312.677      386936.324        4500.114           0.255  
G04  20958133.786      276436.551        3221.224           0.255  
G05  20599033.092      131315.958        1532.815           0.255  
G06  23961024.463      414241.002        4908.719           0.255  
G07  22035059.780      107047.028        1269.073           0.255  
G09  24173018.019       39501.335         458.044           0.255  
> 2026 02 15 23 36 27.3688020  0  7                     
G02  23497517.941      114810.096        1315.568           0.255  
G03  23967196.563      387386.668        4506.231           0.255  
G04  20958056.995      276758.938        3226.036           0.255  
G05  20598989.057      131469.497        1539.163           0.255  
G06  23960896.650      414732.118        4913.166           0.255  
G07  22035028.195      107174.120        1276.950           0.255  
G09  24173001.620       39547.439         465.738           0.255  
> 2026 02 15 23 36 27.4688020  0  7                     
G02  23497479.274      114941.684        1315.476           0.255  
G03  23967090.058      387837.508        4506.783           0.255  
G04  20957977.160      277081.831        3228.576           0.255  
G05  20598947.897      131623.536        1541.042           0.255  
G06  23960758.894      415223.726        4914.553           0.255  
G07  22035003.239      107301.642        1273.827           0.255  
G09  24172991.428       39594.087         466.122           0.255  
> 2026 02 15 23 36 27.5688020  0  7                     
G02  23497444.104      115073.296        1311.058           0.255  
G03  23966981.318      388288.369        4508.699           0.255  
G04  20957888.121      277404.718        3227.607           0.255  
G05  20598911.043      131777.574        1537.585           0.255  
G06  23960640.680      415715.358        4913.106           0.255  
G07  22034971.039      107429.206        1270.842           0.255  
G09  24172985.651       39640.707         463.546           0.255  
> 2026 02 15 23 36 27.6688020  0  7                     
G02  23497415.517      115204.511        1312.860           0.255  
G03  23966852.664      388738.773        4504.063           0.255  
G04  20957794.963      277727.177        3227.666           0.255  
G05  20598874.482      131931.195        1536.946           0.255  
G06  23960528.168      416206.559        4913.886           0.255  
G07  22034933.596      107556.389        1273.291           0.255  
G09  24172981.313       39686.925         466.765           0.255  
> 2026 02 15 23 36 27.7688020  0  7                     
G02  23497387.840      115336.112        1319.398           0.255  
G03  23966732.959      389189.591        4511.098           0.255  
G04  20957709.868      278050.041        3232.029           0.255  
G05  20598842.221      132085.210        1544.281           0.255  
G06  23960400.237      416698.171        4920.192           0.255  
G07  22034897.889      107683.931        1278.209           0.255  
G09  24172971.292       39733.548         471.795           0.255  
> 2026 02 15 23 36 27.8688020  0  7                     
G02  23497354.059      115467.779        1311.847           0.255  
G03  23966622.904      389640.457        4499.602           0.255  
G04  20957636.516      278372.977        3224.324           0.255  
G05  20598800.809      132239.324        1537.714           0.255  
G06  23960269.656      417189.879        4913.464           0.255  
G07  22034862.884      107811.533        1271.867           0.255  
G09  24172958.385       39780.225         462.791           0.255  
> 2026 02 15 23 36 27.9688020  0  7                     
G02  23497318.421      115599.125        1346.786           0.255  
G03  23966504.741      390090.956        4502.135           0.255  
G04  20957561.146      278695.526        3224.748           0.255  
G05  20598752.894      132392.995        1535.686           0.255  
G06  23960149.106      417681.139        4909.329           0.255  
G07  22034831.267      107938.741        1271.824           0.255  
G09  24172947.561       39826.505         459.559           0.255  
> 2026 02 15 23 36 28.0688020  0  7                     
G02  23497285.283      115730.494        1316.570           0.255  
G03  23966380.606      390541.657        4510.516           0.255  
G04  20957483.662      279018.237        3228.645           0.255  
G05  20598710.714      132546.861        1539.423           0.255  
G06  23960017.325      418172.598        4916.762           0.255  
G07  22034803.627      108066.170        1276.250           0.255  
G09  24172940.312       39872.952         468.030           0.255  
> 2026 02 15 23 36 28.1688020  0  7                     
G02  23497252.110      115861.860        1309.733           0.255  
G03  23966273.705      390992.243        4504.992           0.255  
G04  20957398.255      279340.855        3223.060           0.255  
G05  20598674.746      132700.648        1535.153           0.255  
G06  23959884.872      418663.981        4912.823           0.255  
G07  22034767.377      108193.515        1272.610           0.255  
G09  24172919.095       39919.331         461.787           0.255  
> 2026 02 15 23 36 28.2688020  0  7                     
G02  23497220.953      115992.865        1306.252           0.255  
G03  23966168.430      391442.482        4500.054           0.255  
G04  20957310.236      279663.161        3223.559           0.255  
G05  20598639.315      132854.097        1534.679           0.255  
G06  23959760.743      419155.027        4911.169           0.255  
G07  22034730.906      108320.463        1268.976           0.255  
G09  24172902.490       39965.344         458.359           0.255  
> 2026 02 15 23 36 28.3688020  0  7                     
G02  23497190.573      116124.395        1406.851           0.255  
G03  23966057.262      391892.738        4504.390           0.255  
G04  20957221.776      279985.425        3223.944           0.255  
G05  20598602.131      133007.515        1532.875           0.255  
G06  23959646.692      419646.067        4913.332           0.255  
G07  22034701.168      108447.451        1270.665           0.255  
G09  24172883.779       40011.380         461.370           0.255  
> 2026 02 15 23 36 28.4688020  0  7                     
G02  23497163.253      116254.574        1305.403           0.255  
G03  23965934.325      392342.690        4497.632           0.255  
G04  20957133.637      280307.400        3217.199           0.255  
G05  20598566.565      133160.672        1529.010           0.255  
G06  23959523.564      420136.795        4905.393           0.255  
G07  22034659.816      108574.134        1266.215           0.255  
G09  24172875.934       40057.118         456.587           0.255  
> 2026 02 15 23 36 28.5688020  0  7                     
G02  23497126.867      116385.247        1309.645           0.255  
G03  23965817.793      392792.585        4499.634           0.255  
G04  20957055.144      280629.339        3221.212           0.255  
G05  20598526.603      133313.790        1533.903           0.255  
G06  23959393.147      420627.508        4909.214           0.255  
G07  22034627.956      108700.759        1266.444           0.255  
G09  24172872.711       40102.797         458.002           0.255  
> 2026 02 15 23 36 28.6688020  0  7                     
G02  23497086.232      116516.488        1314.400           0.255  
G03  23965706.270      393243.065        4505.046           0.255  
G04  20956982.666      280951.860        3226.846           0.255  
G05  20598480.294      133467.457        1538.829           0.255  
G06  23959267.481      421118.767        4912.642           0.255  
G07  22034602.377      108827.957        1272.220           0.255  
G09  24172851.284       40149.088         466.726           0.255  
> 2026 02 15 23 36 28.7688020  0  7                     
G02  23497053.340      116647.694        1309.600           0.255  
G03  23965588.352      393693.505        4498.719           0.255  
G04  20956906.283      281274.301        3220.399           0.255  
G05  20598437.021      133621.064        1532.794           0.255  
G06  23959140.094      421610.018        4910.561           0.255  
G07  22034570.771      108955.099        1265.625           0.255  
G09  24172846.409       40195.269         457.379           0.255  
> 2026 02 15 23 36 28.8688020  0  7                     
G02  23497027.174      116778.335        1309.262           0.255  
G03  23965465.347      394143.439        4502.077           0.255  
G04  20956820.704      281596.256        3222.689           0.255  
G05  20598403.448      133774.167        1531.873           0.255  
G06  23959002.673      422100.761        4909.783           0.255  
G07  22034531.320      109081.777        1268.990           0.255  
G09  24172840.362       40240.971         460.252           0.255  
> 2026 02 15 23 36 28.9688020  0  7                     
G02  23496990.464      116909.518        1311.133           0.255  
G03  23965353.315      394593.884        4502.774           0.255  
G04  20956733.872      281918.723        3225.503           0.255  
G05  20598369.023      133927.817        1536.136           0.255  
G06  23958883.001      422591.999        4913.840           0.255  
G07  22034494.924      109208.944        1273.035           0.255  
G09  24172827.654       40287.176         462.745           0.255  
> 2026 02 15 23 36 29.0688020  0  7                     
G02  23496958.992      117041.389        1317.947           0.255  
G03  23965245.911      395045.026        4512.183           0.255  
G04  20956646.127      282241.879        3232.141           0.255  
G05  20598330.845      134082.133        1544.918           0.255  
G06  23958767.451      423083.939        4921.017           0.255  
G07  22034461.951      109336.817        1281.165           0.255  
G09  24172813.564       40334.066         469.081           0.255  
> 2026 02 15 23 36 29.1688020  0  7                     
G02  23496924.557      117172.919        1313.242           0.255  
G03  23965135.056      395495.752        4504.898           0.255  
G04  20956560.555      282564.654        3228.267           0.255  
G05  20598293.310      134236.071        1540.991           0.255  
G06  23958643.712      423575.495        4915.247           0.255  
G07  22034430.376      109464.331        1276.952           0.255  
G09  24172789.908       40380.594         465.344           0.255  
> 2026 02 15 23 36 29.2688020  0  7                     
G02  23496885.795      117304.332        1306.185           0.255  
G03  23965015.916      395946.462        4503.165           0.255  
G04  20956477.474      282887.361        3223.626           0.255  
G05  20598252.701      134389.932        1534.847           0.255  
G06  23958512.731      424066.998        4909.652           0.255  
G07  22034398.786      109591.744        1269.517           0.255  
G09  24172781.493       40427.076         461.655           0.255  
> 2026 02 15 23 36 29.3688020  0  7                     
G02  23496856.677      117435.360        1306.726           0.255  
G03  23964895.626      396396.778        4501.881           0.255  
G04  20956399.523      283209.654        3220.492           0.255  
G05  20598205.469      134543.410        1532.641           0.255  
G06  23958387.072      424558.058        4908.829           0.255  
G07  22034371.111      109718.757        1266.941           0.255  
G09  24172773.745       40473.122         461.005           0.255  
> 2026 02 15 23 36 29.4688020  0  7                     
G02  23496826.718      117566.532        1310.125           0.255  
G03  23964791.609      396847.173        4503.866           0.255  
G04  20956324.781      283532.080        3225.822           0.255  
G05  20598163.684      134696.997        1539.456           0.255  
G06  23958257.558      425049.272        4914.940           0.255  
G07  22034330.411      109845.893        1271.945           0.255  
G09  24172746.745       40519.262         463.599           0.255  
> 2026 02 15 23 36 29.5688020  0  7                     
G02  23496793.845      117698.050        1314.511           0.255  
G03  23964672.421      397297.957        4508.455           0.255  
G04  20956247.959      283854.841        3228.209           0.255  
G05  20598127.886      134850.927        1540.616           0.255  
G06  23958124.684      425540.811        4913.865           0.255  
G07  22034295.968      109973.390        1273.708           0.255  
G09  24172736.031       40565.788         467.464           0.255  
> 2026 02 15 23 36 29.6688020  0  7                     
G02  23496755.866      117829.329        1254.915           0.255  
G03  23964548.273      397748.805        4509.908           0.255  
G04  20956159.301      284177.684        3227.812           0.255  
G05  20598092.794      135004.949        1540.305           0.255  
G06  23958007.888      426032.504        4914.801           0.255  
G07  22034266.631      110100.927        1271.747           0.255  
G09  24172731.775       40612.354         466.638           0.255  
> 2026 02 15 23 36 29.7688020  0  7                     
G02  23496719.571      117961.035        1311.301           0.255  
G03  23964432.693      398199.520        4504.138           0.255  
G04  20956066.906      284500.420        3224.150           0.255  
G05  20598055.681      135158.864        1537.438           0.255  
G06  23957890.962      426524.042        4912.829           0.255  
G07  22034234.050      110228.389        1272.882           0.255  
G09  24172724.251       40658.817         460.445           0.255  
> 2026 02 15 23 36 29.8688020  0  7                     
G02  23496685.686      118091.996        1309.036           0.255  
G03  23964326.312      398649.791        4504.478           0.255  
G04  20955980.223      284822.643        3223.161           0.255  
G05  20598015.021      135312.259        1534.937           0.255  
G06  23957760.904      427015.085        4910.430           0.255  
G07  22034202.733      110355.375        1270.791           0.255  
G09  24172715.094       40704.831         459.594           0.255  
> 2026 02 15 23 36 29.9688020  0  7                     
G02  23496655.418      118223.046        1309.405           0.255  
G03  23964206.509      399100.108        4504.604           0.255  
G04  20955903.923      285144.949        3223.950           0.255  
G05  20597972.655      135465.760        1537.458           0.255  
G06  23957631.938      427506.226        4912.691           0.255  
G07  22034169.768      110482.438        1270.866           0.255  
G09  24172702.394       40750.892         462.261           0.255  
> 2026 02 15 23 36 30.0688020  0  7                     
G02  23496622.292      118353.943        1304.423           0.255  
G03  23964090.578      399550.261        4498.795           0.255  
G04  20955828.992      285467.123        3216.400           0.255  
G05  20597929.019      135619.088        1529.470           0.255  
G06  23957510.812      427997.189        4905.570           0.255  
G07  22034135.004      110609.318        1265.416           0.255  
G09  24172694.920       40796.832         459.228           0.255  
> 2026 02 15 23 36 30.1688020  0  7                     
G02  23496592.567      118484.301        1300.964           0.255  
G03  23963981.616      399999.890        4494.321           0.255  
G04  20955750.195      285788.771        3214.757           0.255  
G05  20597887.425      135771.907        1527.395           0.255  
G06  23957380.799      428487.635        4902.405           0.255  
G07  22034097.966      110735.691        1260.800           0.255  
G09  24172686.761       40842.208         454.253           0.255  
> 2026 02 15 23 36 30.2688020  0  7                     
G02  23496554.809      118615.216        1312.340           0.255  
G03  23963876.893      400450.084        4502.194           0.255  
G04  20955665.745      286110.950        3222.772           0.255  
G05  20597849.810      135925.257        1536.474           0.255  
G06  23957247.260      428978.654        4910.857           0.255  
G07  22034069.841      110862.586        1268.752           0.255  
G09  24172666.318       40888.122         460.163           0.255  
> 2026 02 15 23 36 30.3688020  0  7                     
G02  23496514.069      118744.462        1276.785           0.255  
G03  23963755.241      400899.906        4493.250           0.255  
G04  20955577.677      286432.714        3213.739           0.255  
G05  20597815.589      136078.189        1525.584           0.255  
G06  23957133.743      429469.246        4901.970           0.255  
G07  22034043.421      110989.162        1260.691           0.255  
G09  24172645.823       40933.653         452.209           0.255  
> 2026 02 15 23 36 30.4688020  0  7                     
G02  23496476.834      118876.730        1311.904           0.255  
G03  23963626.483      401350.251        4506.005           0.255  
G04  20955487.569      286755.036        3224.282           0.255  
G05  20597779.053      136231.677        1535.454           0.255  
G06  23957017.544      429960.407        4914.431           0.255  
G07  22034014.343      111116.164        1269.456           0.255  
G09  24172632.235       40979.703         459.773           0.255  
> 2026 02 15 23 36 30.5688020  0  7                     
G02  23496445.835      119008.220        1316.824           0.255  
G03  23963514.719      401801.025        4506.619           0.255  
G04  20955404.675      287077.787        3229.787           0.255  
G05  20597739.411      136385.619        1542.446           0.255  
G06  23956882.533      430451.980        4917.209           0.255  
G07  22033983.163      111243.649        1274.364           0.255  
G09  24172628.576       41026.233         468.369           0.255  
> 2026 02 15 23 36 30.6688020  0  7                     
G02  23496415.881      119139.321        1307.639           0.255  
G03  23963405.626      402251.460        4504.194           0.255  
G04  20955331.327      287400.171        3220.362           0.255  
G05  20597696.029      136539.149        1530.619           0.255  
G06  23956763.163      430943.208        4907.760           0.255  
G07  22033944.013      111370.787        1262.373           0.255  
G09  24172615.730       41072.330         458.252           0.255  
> 2026 02 15 23 36 30.7688020  0  7                     
G02  23496387.098      119269.506        1250.512           0.255  
G03  23963281.904      402701.324        4501.979           0.255  
G04  20955258.862      287722.190        3233.114           0.255  
G05  20597654.439      136692.243        1535.492           0.255  
G06  23956636.374      431433.945        4910.535           0.255  
G07  22033909.028      111496.564        1205.632           0.255  
G09  24172602.237       41118.002         459.559           0.255  
> 2026 02 15 23 36 30.8688020  0  7                     
G02  23496348.110      119400.940        1308.489           0.255  
G03  23963163.136      403151.646        4504.506           0.255  
G04  20955177.515      288044.329        3219.107           0.255  
G05  20597615.641      136845.698        1533.467           0.255  
G06  23956500.107      431925.066        4911.784           0.255  
G07  22033881.484      111624.489        1269.745           0.255  
G09  24172593.542       41164.047         457.650           0.255  
> 2026 02 15 23 36 30.9688020  0  7                     
G02  23496313.020      119531.832        1314.345           0.255  
G03  23963065.482      403601.800        4501.676           0.255  
G04  20955088.649      288366.482        3223.576           0.255  
G05  20597574.687      136999.023        1535.609           0.255  
G06  23956373.414      432416.047        4912.630           0.255  
G07  22033852.912      111751.406        1272.526           0.255  
G09  24172583.011       41209.954         464.998           0.255  
> 2026 02 15 23 36 31.0688020  0  7                     
G02  23496276.048      119662.781        1307.460           0.255  
G03  23962948.568      404052.115        4501.856           0.255  
G04  20954997.683      288688.734        3220.416           0.255  
G05  20597537.140      137152.445        1532.344           0.255  
G06  23956265.467      432907.165        4909.015           0.255  
G07  22033821.298      111878.399        1268.775           0.255  
G09  24172576.469       41255.949         460.712           0.255  
> 2026 02 15 23 36 31.1688020  0  7                     
G02  23496245.451      119793.329        1306.205           0.255  
G03  23962826.240      404501.949        4498.824           0.255  
G04  20954910.895      289010.797        3276.719           0.255  
G05  20597500.909      137305.425        1531.168           0.255  
G06  23956134.370      433397.819        4905.590           0.255  
G07  22033788.366      112005.259        1373.809           0.255  
G09  24172559.267       41301.467         456.775           0.255  
> 2026 02 15 23 36 31.2688020  0  7                     
G02  23496210.639      119924.104        1312.890           0.255  
G03  23962710.830      404952.030        4502.573           0.255  
G04  20954832.452      289332.567        3222.695           0.255  
G05  20597461.292      137458.672        1535.236           0.255  
G06  23956004.534      433888.724        4911.330           0.255  
G07  22033753.641      112131.759        1267.801           0.255  
G09  24172545.697       41347.291         462.733           0.255  
> 2026 02 15 23 36 31.3688020  0  7                     
G02  23496182.058      120055.060        1309.139           0.255  
G03  23962600.284      405402.333        4501.956           0.255  
G04  20954755.573      289654.805        3219.265           0.255  
G05  20597417.475      137612.107        1531.356           0.255  
G06  23955881.885      434379.824        4906.947           0.255  
G07  22033715.838      112258.792        1265.097           0.255  
G09  24172537.496       41393.255         457.038           0.255  
> 2026 02 15 23 36 31.4688020  0  7                     
G02  23496146.430      120185.796        1305.652           0.255  
G03  23962481.849      405852.329        4499.670           0.255  
G04  20954678.529      289976.818        3221.937           0.255  
G05  20597374.558      137765.301        1534.215           0.255  
G06  23955755.136      434870.715        4908.951           0.255  
G07  22033690.047      112385.580        1265.882           0.255  
G09  24172522.499       41439.039         460.723           0.255  
> 2026 02 15 23 36 31.5688020  0  7                     
G02  23496109.418      120317.302        1259.462           0.255  
G03  23962362.041      406302.914        4504.700           0.255  
G04  20954597.876      290299.693        3280.950           0.255  
G05  20597337.902      137919.011        1539.642           0.255  
G06  23955620.064      435362.081        4914.584           0.255  
G07  22033666.741      112512.870        1274.125           0.255  
G09  24172498.356       41485.317         462.805           0.255  
> 2026 02 15 23 36 31.6688020  0  7                     
G02  23496072.571      120447.955        1260.491           0.255  
G03  23962248.648      406753.284        4504.176           0.255  
G04  20954507.852      290621.656        3223.314           0.255  
G05  20597302.726      138072.491        1536.379           0.255  
G06  23955497.644      435853.289        4913.449           0.255  
G07  22033629.734      112639.937        1271.220           0.255  
G09  24172490.289       41531.352         459.142           0.255  
